장소ID,장소명,도로명주소,장소상세설명,위도,경도,등록일시,수정일시,지번주소,사용여부
289,하고수동해수욕장,,해안도로를 따라서 자전거 타기,33.4973684,126.9460835,2018-05-31,2018-05-31,제주특별자치도 제주시 우도면 연평리 2609,y
282,공항,제주특별자치도 제주시 다호6길 15,도착,33.4991412,126.4940957,2018-05-30,2018-05-30,제주특별자치도 제주시 용담2동 1869-2,y
283,애월 해안도로,제주특별자치도 제주시 다호6길 15,바다를 먹고 달리자,33.4796117,126.4164854,2018-05-30,2018-05-30,제주특별자치도 제주시 애월읍 하귀1리 709,y
294,비자림,,ㅇㅇ,33.4804255,126.8071463,2018-05-31,2018-05-31,제주특별자치도 제주시 구좌읍 평대리 3017,y
292,교래자연휴양림,제주특별자치도 제주시 남조로 2023 교래자연휴양림,ㄴㄴ,33.4374471,126.6618011,2018-05-31,2018-05-31,제주특별자치도 제주시 조천읍 교래리 산119,y
293,이호해수욕장,,ㅇㅇ,33.4851838,126.4605029,2018-05-31,2018-05-31,제주특별자치도 제주시 노형동 3744-4,y
295,제주허브동산,,허브동산,33.324744,126.8152373,2018-05-31,2018-05-31,제주특별자치도 서귀포시 표선면 표선리 2530,y
296,한라수목원,,연동,33.4695392,126.4907231,2018-05-31,2018-05-31,제주특별자치도 제주시 연동 996-2,y
297,비자림,,비자림 숲걷기 ,33.4612383,126.798932,2018-05-31,2018-05-31,제주특별자치도 제주시 구좌읍 송당리 산218,y
298,절물자연휴양림 ,,장생이 숲길 ,33.4243152,126.631174,2018-05-31,2018-05-31,제주특별자치도 제주시 조천읍 교래리 산137-29,y
300,협재해수욕장,,하얀백사장 ,33.3807275,126.2296422,2018-05-31,2018-05-31,제주특별자치도 제주시 한림읍 금능리 1188,y
306,용왕난드르향토음식,제주특별자치도 서귀포시 대평감산로 8,향토음식,33.2354175,126.3669632,2018-06-01,2018-06-01,제주특별자치도 서귀포시 안덕면 창천리 876-11,y
308,안거리밖거리,제주특별자치도 서귀포시 솔동산로 6-1,"옥돔,돔베고기 나오는집",33.2442563,126.5641243,2018-06-01,2018-06-01,제주특별자치도 서귀포시 송산동 584-3,y
315,협재 해조대팬션 ,제주특별자치도 제주시 연북로 218 신화위더스빌 더샵,제주 4.5일차 ,33.3938012,126.2405959,2018-06-03,2018-06-03,제주특별자치도 제주시 한림읍 협재리 1750-4,y
312,코코비치 리조트,제주특별자치도 서귀포시 태평로92번길 37 코코비치리조트,숙박,33.2410482,126.5316374,2018-06-01,2018-06-01,제주특별자치도 서귀포시 대륜동 1616-8,y
313,비스타케이월드컵,제주특별자치도 서귀포시 김정문화로41번길 10-6 비스타케이호텔,숙소,33.2519324,126.5097695,2018-06-01,2018-06-01,제주특별자치도 서귀포시 대륜동 745-1,y
314,제주공항,,도착,33.4865985,126.5135292,2018-06-03,2018-06-03,제주특별자치도 제주시 오라동 1469-7,y
316,비양도,제주특별자치도 제주시 연북로 218 신화위더스빌 더샵,자전거여행,33.4050299,126.2299065,2018-06-03,2018-06-03,제주특별자치도 제주시 한림읍 협재리 1750-4,y
317,우도,제주특별자치도 제주시 연북로 218 신화위더스빌 더샵,버스투어,33.501354,126.9576638,2018-06-03,2018-06-03,제주특별자치도 제주시 우도면 연평리 1554-1,y
318,제주당처물동굴,,문화유산,33.5573044,126.7855995,2018-06-03,2018-06-03,제주특별자치도 제주시 구좌읍 월정리 803,y
320,동복어촌체험장,,소라,33.5556929,126.7188708,2018-06-03,2018-06-03,제주특별자치도 제주시 구좌읍 동복리 687-7,y
324,옐로우 스토어,제주특별자치도 제주시 거문오름길 23-58,사려니 숲길 맛집,33.4255439,126.657114,2018-06-05,2018-06-05,제주특별자치도 제주시 조천읍 교래리 732-3,y
325,흙돼지박스,제주특별자치도 서귀포시 신양로 100,섭지코지 흙돼지 도시락,33.436379,126.9203815,2018-06-05,2018-06-05,제주특별자치도 서귀포시 성산읍 고성리 203-5,y
326,흑돼지천국,제주특별자치도 서귀포시 이어도로 137 갈치명가횟집,흑돼지 무한 리필,33.2397517,126.4370133,2018-06-05,2018-06-05,제주특별자치도 서귀포시 중문동 2066-1,y
331,숲애,,칼국수집,33.4355237,126.672805,2018-06-05,2018-06-05,제주특별자치도 제주시 조천읍 교래리 산56,y
332,함덕그때그집,,흑돼지구이,33.5285763,126.6715858,2018-06-05,2018-06-05,제주특별자치도 제주시 조천읍 함덕리 759,y
333,삼다공원,제주특별자치도 제주시 연사3길 14 오라뜨래별아파트,야간콘서트,33.4878991,126.5118267,2018-06-05,2018-06-05,제주특별자치도 제주시 오라동 1477,y
334,예스렌트카,제주특별자치도 제주시 연사3길 14 오라뜨래별아파트,렌트카,33.476021,126.4406514,2018-06-05,2018-06-05,제주특별자치도 제주시 애월읍 광령리 1637,y
335,제주공항,제주특별자치도 제주시 다호6길 15,공항,33.4975929,126.4941274,2018-06-05,2018-06-05,제주특별자치도 제주시 용담2동 1807-1,y
336,소다공,제주특별자치도 서귀포시 중산간동로 3235,옥돔파스타,33.4491429,126.8801582,2018-06-05,2018-06-05,제주특별자치도 서귀포시 성산읍 수산리 1292-1,y
337,도착,,3시 도착,33.4961157,126.4982644,2018-06-05,2018-06-05,제주특별자치도 제주시 연동 98-2,y
344,제주공항,,도착,33.4844715,126.485999,2018-06-07,2018-06-07,제주특별자치도 제주시 노형동 943,y
345,제주한화리조트,,ㅇ,33.4438594,126.6264306,2018-06-07,2018-06-07,제주특별자치도 제주시 봉개동 산65,y
229,123,제주특별자치도 서귀포시 영실로 492,123,33.3660473,126.5472244,2018-01-18,2018-01-18,제주특별자치도 서귀포시 남원읍 하례리 산1-7,
230,asdf,,asdf,33.3975809,126.4491602,2018-01-18,2018-01-18,제주특별자치도 제주시 애월읍 광령리 산182-1,
231,123,,123,33.3981988,126.5248519,2018-01-18,2018-01-18,제주특별자치도 제주시 오라동 산107-20,
232,sdaf,,asdf,33.4016076,126.5179318,2018-01-18,2018-01-18,제주특별자치도 제주시 오라동 산107,
233,saf,,a,33.3926794,126.4161892,2018-01-18,2018-01-18,제주특별자치도 제주시 애월읍 유수암리 산138,
234,123,,123,33.388822,126.507066,2018-01-18,2018-01-18,제주특별자치도 제주시 노형동 산20-16,
236,위미항활어회센터,제주특별자치도 서귀포시 위미중앙로196번길 6-13 제주해양경비안전서 위미출장소,위미항활어회센터,33.2715584,126.6629557,2018-04-25,2018-04-25,제주특별자치도 서귀포시 남원읍 위미리 1757-12,y
237,123,,123,33.3670524,126.5279513,2018-01-18,2018-01-18,제주특별자치도 제주시 오라동 산107-20,
238,ghj,,ghj,33.4019588,126.5633496,2018-01-18,2018-01-18,제주특별자치도 제주시 아라동 산67,
239,a,,z,33.383833,126.4617107,2018-01-18,2018-01-18,제주특별자치도 제주시 애월읍 광령리 산183-2,
240,b,,b,33.3777091,126.420503,2018-01-18,2018-01-18,제주특별자치도 제주시 애월읍 소길리 산259,
241,c,제주특별자치도 제주시 1100로 2528-171,123,33.3369302,126.5145322,2018-01-19,2018-01-19,제주특별자치도 서귀포시 대천동 산1-1,
242,d,제주특별자치도 서귀포시 1100로 740-168 법정사,d,33.3193372,126.4803525,2018-01-19,2018-01-19,제주특별자치도 서귀포시 대천동 산1,
243,zcxv,,zxcv,33.4164824,126.5012447,2018-01-19,2018-01-19,제주특별자치도 제주시 연동 2488-281,
244,90,,90,33.3860427,126.5205152,2018-01-19,2018-01-19,제주특별자치도 제주시 오라동 산107-20,
245,10,,10,33.3579832,126.4090531,2018-01-19,2018-01-19,제주특별자치도 제주시 애월읍 봉성리 산1,
113,제주도,,제주도,33.432759,126.5155157,2018-02-20,2018-02-20,제주특별자치도 제주시 오라동 산63,y
205,웰컴센터,,테스트,33.4901841,126.5083011,2018-03-24,2018-03-24,제주특별자치도 제주시 오라동 2052,y
204,친구집,,테스트,33.383943,126.2280103,2018-03-24,2018-03-24,제주특별자치도 제주시 한림읍 금능리 1244,y
1012,협재해수욕장,,1,33.394261,126.2399011,2018-08-08,2018-08-08,제주특별자치도 제주시 한림읍 협재리 2514,y
214,우진해장국,제주특별자치도 제주시 선덕로3길 40,해장국,70.223,120.111,2018-01-18,2018-01-18,지번주소..,
212,우진해장국23,제주특별자치도 제주시 선덕로3길 40,해장국,70.223,120.111,2018-01-18,2018-01-18,지번주소..,
170,우리집,,한라산 우리집,33.4064907,126.5222816,2018-03-03,2018-03-03,제주특별자치도 제주시 오라동 산107,y
137,비밀의집,,우리집,33.3397138,126.5161513,2018-02-27,2018-02-27,제주특별자치도 서귀포시 대천동 산1-1,y
211,테스트장소,,ㅌㅌ,33.5104357,126.6366836,2018-03-26,2018-03-26,제주특별자치도 제주시 조천읍 신촌리 44,y
258,친구네집,,친구,33.47793,126.6455142,2018-05-07,2018-05-07,제주특별자치도 제주시 조천읍 와흘리 750,y
269,모텔,제주특별자치도 제주시 문연로 18 제주지방경찰청,ㅁㅁ,33.489218,126.4998152,2018-05-09,2018-05-09,제주특별자치도 제주시 연동 312-58,y
247,test,,test,33.3740055,126.5313139,2018-05-04,2018-05-04,제주특별자치도 제주시 아라동 산182,y
201,우진해장국23,제주특별자치도 제주시 선덕로3길 40,해장국,70.223,120.111,2018-01-18,2018-01-18,지번주소..,
206,친구집,,테스트,33.5325577,126.672636,2018-03-25,2018-03-25,제주특별자치도 제주시 조천읍 함덕리 858,y
207,우리집,,우리집,33.477033,126.357484,2018-03-25,2018-03-25,제주특별자치도 제주시 애월읍 신엄리 2786-7,y
1024,칠십리 시공원,제주특별자치도 서귀포시 중산간동로8183번길 12,13,33.2459749,126.5547713,2018-08-08,2018-08-08,제주특별자치도 서귀포시 천지동 2565,y
159,지후 스팟,,나만의 비밀 창고,33.5259411,126.7743529,2018-03-03,2018-03-03,제주특별자치도 제주시 구좌읍 행원리 3334,y
102,황금손가락,제주특별자치도 제주시1100로2894-49,초밥,126.382101,33.406249,2018-04-05,2018-04-05,제주특별자치도 제주시 노형동 291-21,y
208,친구집,,친구집,33.4389614,126.9188933,2018-03-25,2018-03-25,제주특별자치도 서귀포시 성산읍 고성리 488,y
213,우진해장국,제주특별자치도 제주시 선덕로3길 40,해장국,70.223,120.111,2018-01-18,2018-01-18,지번주소..,
209,친구1집,,친구1집,33.4658459,126.496526,2018-03-25,2018-03-25,제주특별자치도 제주시 연동 산62,y
210,테스트,,테스트,33.3866201,126.2287454,2018-03-25,2018-03-25,제주특별자치도 제주시 한림읍 금능리 1296-4,y
112,우진해장국,제주특별자치도 제주시 선덕로3길 40,해장국,70.223,120.111,2018-01-04,2018-01-04,,
1068,하나로마트 성산점,,하나로마트 성산점,33.4469646,126.9127044,2018-08-10,2018-08-10,제주특별자치도 서귀포시 성산읍 고성리 1093-13,y
1069,엘로우스토어,,엘로우스토어,33.4240549,126.6326587,2018-08-10,2018-08-10,대한민국,y
1070,고기국수,,ㅇㅇ,33.5079017,126.5324645,2018-08-10,2018-08-10,제주특별자치도 제주시 일도2동 996-3,y
1071,제주시청,,ㅇㅇ,33.4991228,126.5301048,2018-08-10,2018-08-10,제주특별자치도 제주시 이도2동 1938-1,y
200,우진해장국23,제주특별자치도 제주시 선덕로3길 40,해장국,70.223,120.111,2018-01-18,2018-01-18,지번주소..,
1075,키아오라 리조트,제주특별자치도 서귀포시 난고로42번길 3,키아오라 리조트,33.4342904,126.9046476,2018-08-10,2018-08-10,제주특별자치도 서귀포시 성산읍 고성리 1803-1,y
1076,자매국수,제주특별자치도 제주시 삼성로 65,자매국수,33.5080485,126.5323443,2018-08-10,2018-08-10,제주특별자치도 제주시 일도2동 1034-19,y
1077,우도,,우도체험,33.5054154,126.9631551,2018-08-10,2018-08-10,제주특별자치도 제주시 우도면 연평리 174,y
1078,성산일출봉,,성산일출봉 오르기,33.4528242,126.9212522,2018-08-10,2018-08-10,제주특별자치도 서귀포시 성산읍 오조리 57-9,y
126,제주관광공사 샘플,,테스트,33.4282506,126.3916531,2018-02-21,2018-02-21,제주특별자치도 제주시 애월읍 유수암리 3256,y
101,수복강녕,제주특별자치도 제주시 연동 선덕로3길 40,떡갈비,126.362101,33.406247,2018-04-05,2018-04-05,제주특별자치도 제주시 연동 312-35,y
192,오설록 옆집,,가즈아,33.3049051,126.3603952,2018-03-03,2018-03-03,제주특별자치도 서귀포시 안덕면 동광리 산3-4,y
203,외할아버지집,,테스트,33.3406641,126.3710805,2018-03-24,2018-03-24,제주특별자치도 서귀포시 안덕면 광평리 산79,y
1035,에코랜드,제주특별자치도 서귀포시 일출로 86,22,33.4554716,126.6660599,2018-08-08,2018-08-08,제주특별자치도 서귀포시 성산읍 성산리 1,y
1057,세화그때그집,제주특별자치도 서귀포시 성산중앙로37번길 9,고기,33.5271076,126.8548165,2018-08-09,2018-08-09,대한민국,y
215,우진해장국,,해장국,70.223,120.111,2018-01-18,2018-01-18,지번주소..,
216,우진해장국,,해장국,33.3871059,126.5841517,2018-01-18,2018-01-18,지번주소..,
217,test,,test,33.4472248,126.5959146,2018-01-18,2018-01-18,제주특별자치도 제주시 봉개동 130,
218,123,,123,33.3758555,126.4741894,2018-01-18,2018-01-18,제주특별자치도 제주시 애월읍 광령리 산183-1,
219,test,,test,33.3881683,126.5717547,2018-01-18,2018-01-18,제주특별자치도 제주시 아라동 산67-18,
220,test1234,,test1234,33.401198,126.6170378,2018-01-18,2018-01-18,제주특별자치도 제주시 조천읍 교래리 산137-2,
221,123,제주특별자치도 서귀포시 분토왓로 120,123,33.2737382,126.5537259,2018-01-18,2018-01-18,제주특별자치도 서귀포시 서홍동 2275,
224,갑마장길,,갑마장길,33.3856307,126.7388614,2018-04-19,2018-04-19,제주특별자치도 서귀포시 표선면 가시리 산53,y
225,asd,,asd,33.3949804,126.5565429,2018-01-18,2018-01-18,제주특별자치도 제주시 아라동 산67-18,
226,zxcv,,zxcv,33.3972892,126.556518,2018-01-18,2018-01-18,제주특별자치도 제주시 아라동 산67,
227,asdlgjk,제주특별자치도 제주시 1100로 2070-510 윗세오름대피소,asd,33.3635893,126.5279898,2018-01-18,2018-01-18,제주특별자치도 제주시 애월읍 광령리 산183-6,
228,1234,,1234,33.3579137,126.5404344,2018-01-18,2018-01-18,제주특별자치도 서귀포시 영천동 산1-2,
281,제주공항,,ㅇ,33.4886622,126.4831946,2018-05-30,2018-05-30,제주특별자치도 제주시 연동 2335-1,y
284,협재해수욕장,제주특별자치도 제주시 금능남로 127 라온프라이빗타운,지나치면 아쉽죠 잉,33.3794645,126.2450381,2018-05-30,2018-05-30,제주특별자치도 제주시 한림읍 협재리 2838,y
285,벨류호텔,제주특별자치도 서귀포시 김정문화로 51,실내수영장 호텔,33.2513125,126.5102987,2018-05-30,2018-05-30,제주특별자치도 서귀포시 대륜동 745-5,y
286,제주 공룡랜드,,공룡랜드,33.4401626,126.4369426,2018-05-30,2018-05-30,제주특별자치도 제주시 애월읍 광령리 747,y
287,섭지코지,,섭지코지,33.4131815,126.9434003,2018-05-30,2018-05-30,대한민국,y
319,예그리나리조트,,6.7.8일차 ,33.5559295,126.7290675,2018-06-03,2018-06-03,제주특별자치도 제주시 구좌읍 김녕리 5878,y
321,제주공항,제주특별자치도 제주시 공항로 2,공항,33.5066743,126.492329,2018-06-03,2018-06-03,제주특별자치도 제주시 용담2동 2002,y
322,쉬멍게스트하우스,제주특별자치도 제주시 중구엄길 64,게하,33.4784381,126.37225,2018-06-03,2018-06-03,제주특별자치도 제주시 애월읍 구엄리 1203,y
323,올티스 다원,제주특별자치도 제주시 거문오름길 23-58,"녹차밭, 오가닉 티 하우스",33.4629369,126.7174761,2018-06-05,2018-06-05,제주특별자치도 제주시 조천읍 선흘리 412-3,y
327,제주공항,제주특별자치도 서귀포시 이어도로 137 갈치명가횟집,공항,33.5047369,126.4923719,2018-06-05,2018-06-05,제주특별자치도 제주시 용담2동 1999-8,y
329,성산바다,,갈치조림,33.4353623,126.9127449,2018-06-05,2018-06-05,제주특별자치도 서귀포시 성산읍 고성리 888-2,y
330,해녀밥상,,전통음식점,33.4366588,126.9196213,2018-06-05,2018-06-05,제주특별자치도 서귀포시 성산읍 고성리 542-19,y
342,제주공항,제주특별자치도 제주시 공항로 2,도착,33.5068975,126.4931878,2018-06-06,2018-06-06,제주특별자치도 제주시 용담2동 2002,y
304,공항,제주특별자치도 제주시 공항로 2,,33.5065935,126.4928303,2018-05-31,2018-05-31,제주특별자치도 제주시 용담2동 2002,y
368,오설록,,오설록설록,33.2952793,126.2888604,2018-06-12,2018-06-12,제주특별자치도 서귀포시 대정읍 구억리 1077,y
343,탐라렌트카,제주특별자치도 제주시 공항로 5,k5 2세대 렌트,33.504927,126.4966936,2018-06-06,2018-06-06,제주특별자치도 제주시 용담2동 1588-6,y
385,영해식당,제주특별자치도 서귀포시 하모상가로 34-3 다모아골드,"밀면, 몸국, 소고기찌개",33.2214019,126.2524863,2018-06-15,2018-06-15,제주특별자치도 서귀포시 대정읍 하모리 923-4,y
387,제주한화리조트,제주특별자치도 제주시 명림로 575-107 한화리조트,숙소,33.4482999,126.6376619,2018-06-16,2018-06-16,제주특별자치도 제주시 봉개동 3-16,y
390,비스타케이호텔,제주특별자치도 서귀포시 중산간동로 7965,숙소,33.2785158,126.5275284,2018-06-17,2018-06-17,제주특별자치도 서귀포시 대륜동 2126,y
388,비스타케이호텔,,ㅇㅇ,33.2440706,126.5591667,2018-06-17,2018-06-17,제주특별자치도 서귀포시 천지동 676,y
389,비스타케이호텔,제주특별자치도 서귀포시 중산간동로 7965,ㅇㅇ,33.2785158,126.5275284,2018-06-17,2018-06-17,제주특별자치도 서귀포시 대륜동 2126,y
414,명송 리조트,제주특별자치도 제주시 비자림로 1220 명송리조트,숙박,33.4346122,126.7358047,2018-06-18,2018-06-18,제주특별자치도 제주시 구좌읍 송당리 2610,y
416,우도여행,,우도가고싶어요,33.4967503,126.9596949,2018-06-18,2018-06-18,제주특별자치도 제주시 우도면 연평리 392,y
418,에코랜드,제주특별자치도 제주시 남조로 1982,에코랜드,33.4456932,126.6742543,2018-06-18,2018-06-18,제주특별자치도 제주시 조천읍 교래리 385-1,y
417,오설록,제주특별자치도 서귀포시 화순서동로 347,설록가고싶어요,33.288643,126.311461,2018-06-18,2018-06-18,제주특별자치도 서귀포시 안덕면 서광리 2471,y
396,발리 리조트,,숙박,33.3889876,126.2498654,2018-06-17,2018-06-17,제주특별자치도 제주시 한림읍 협재리 1082,y
419,제주항연안여객선터미널,제주특별자치도 제주시 임항로 111 제주항연안여객터미널,목포-제주,33.5194961,126.5349714,2018-06-19,2018-06-19,제주특별자치도 제주시 건입동 918-30,y
398,제주스테이호텔,제주특별자치도 제주시 무근성7길 22,"1박 45,222원",33.5144537,126.5205641,2018-06-18,2018-06-18,제주특별자치도 제주시 삼도2동 1053-15,y
399,제주동문재래시장,제주특별자치도 제주시 중앙로13길 25-2 보인빌딩,6시부터12시,33.5122385,126.5266831,2018-06-18,2018-06-18,제주특별자치도 제주시 일도1동 1481-8,y
400,토끼굴 ,제주특별자치도 제주시 한동북1길 9-14,숙소,33.540343,126.8262234,2018-06-18,2018-06-18,제주특별자치도 제주시 구좌읍 한동리 1502,y
401,행온카페,제주특별자치도 제주시 행원로 151,가고푼카페,33.5520698,126.8115599,2018-06-18,2018-06-18,제주특별자치도 제주시 구좌읍 행원리 784-1,y
402,제주공항,,제주공항,33.4984146,126.4927537,2018-06-18,2018-06-18,제주특별자치도 제주시 용담2동 1843,y
403,한동올레펜션,제주특별자치도 제주시 한동로4길 20-16,숙소,33.5356373,126.8211555,2018-06-18,2018-06-18,제주특별자치도 제주시 구좌읍 한동리 1891,y
404,명경식당,제주특별자치도 서귀포시 화순로 88 화순해장국,콩국수,33.2472653,126.3370152,2018-06-18,2018-06-18,제주특별자치도 서귀포시 안덕면 화순리 322-5,y
405,재암식당,제주특별자치도 제주시 협재4길 4,해물뚝배기,33.3942355,126.2412133,2018-06-18,2018-06-18,제주특별자치도 제주시 한림읍 협재리 1748-2,y
406,초이호스텔 레이디,제주특별자치도 서귀포시 태평로335번길 5,숙박,33.2471527,126.5578042,2018-06-18,2018-06-18,제주특별자치도 서귀포시 천지동 316-6,y
407,평대랑 그네랑,제주특별자치도 제주시 대수길 22,2033-7번지 (커피숍),33.5367838,126.8383045,2018-06-18,2018-06-18,제주특별자치도 제주시 구좌읍 평대리 2033-6,y
408,다락마마(숙소),제주특별자치도 제주시 상하도길 46-16,숙소,33.5172018,126.8662067,2018-06-18,2018-06-18,제주특별자치도 제주시 구좌읍 상도리 558,y
409,농협 하나로마트,제주특별자치도 제주시 세평항로 13,마트(장보기),33.5245777,126.853198,2018-06-18,2018-06-18,제주특별자치도 제주시 구좌읍 평대리 3351-2,y
410,삼달리 참꽃네(숙소),제주특별자치도 서귀포시 삼달로 66,숙소,33.3710021,126.8623183,2018-06-18,2018-06-18,제주특별자치도 서귀포시 성산읍 삼달리 103-16,y
411,올레로펜션(숙소),제주특별자치도 제주시 내도7길 10-4,숙소,33.4939429,126.4425896,2018-06-18,2018-06-18,제주특별자치도 제주시 외도동 346,y
413,공항,,제주도착,33.5001577,126.491328,2018-06-18,2018-06-18,제주특별자치도 제주시 용담2동 1891-2,y
307,도라지식당,제주특별자치도 제주시 연삼로 128,자리물회,33.4927141,126.505914,2018-06-01,2018-06-01,제주특별자치도 제주시 오라동 2112,y
309,진주식당,제주특별자치도 서귀포시 태평로 353 진주식당,전복뚝배기,33.2466038,126.5590756,2018-06-01,2018-06-01,제주특별자치도 서귀포시 천지동 314-7,y
347,우디하우스,제주특별자치도 제주시 천덕로 153-1,숙소,33.4397047,126.3207189,2018-06-07,2018-06-07,제주특별자치도 제주시 애월읍 곽지리 229-2,y
348,트라인커피,제주특별자치도 제주시 와흘상길 32,앤틱카페,33.4939397,126.6333026,2018-06-07,2018-06-07,제주특별자치도 제주시 조천읍 와흘리 1908,y
349,일루미86,제주특별자치도 제주시 서흘1길 86,LED카페,33.5321628,126.5920242,2018-06-07,2018-06-07,제주특별자치도 제주시 삼양동 966,y
350,성이시돌목장,제주특별자치도 제주시 금악동길 35,성이시돌목장,33.3470258,126.3274326,2018-06-07,2018-06-07,제주특별자치도 제주시 한림읍 금악리 124,y
351,위미캔들,제주특별자치도 서귀포시 태위로 293-1,기념품,33.2761982,126.6783432,2018-06-07,2018-06-07,제주특별자치도 서귀포시 남원읍 위미리 959-7,y
352,제주기역,제주특별자치도 제주시 협재1길 19-8,여자 4인 도미토리이용체크인 오후 4시 체크아웃 오전 11시,33.3975754,126.242536,2018-06-08,2018-06-08,제주특별자치도 제주시 한림읍 협재리 1698,y
353,제주공항,제주특별자치도 제주시 공항로 2,출발도착,33.506792,126.4929682,2018-06-08,2018-06-08,제주특별자치도 제주시 용담2동 2002,y
354,중문올래게스트하우스,제주특별자치도 서귀포시 일주서로 874 그린성콘도민박,체크인 4시 체크아웃 10시,33.2585782,126.4172913,2018-06-08,2018-06-08,제주특별자치도 서귀포시 예래동 2350,y
355,제주공항,제주특별자치도 제주시 공항로 2,공항수속후 렌터카인수,33.5069852,126.4928476,2018-06-08,2018-06-08,제주특별자치도 제주시 용담2동 2002,y
356,오션뷰펜션,제주특별자치도 제주시 공항로 2,4박 숙소,33.52516,126.7885445,2018-06-08,2018-06-08,제주특별자치도 제주시 구좌읍 행원리 3559,y
357,안녕협재씨,제주특별자치도 서귀포시 일주서로 874 그린성콘도민박,11:00-19:00 재료소진시 조기마감딱새우비빔밥,33.3989684,126.2453989,2018-06-08,2018-06-08,제주특별자치도 제주시 한림읍 협재리 1450-2,y
358,이에스리조트 제주,,es리조트 ,33.2893719,126.4580858,2018-06-08,2018-06-08,제주특별자치도 서귀포시 중문동 산83-3,y
359,금오름,제주특별자치도 서귀포시 일주서로 874 그린성콘도민박,오름오름 ,33.3536659,126.3061905,2018-06-08,2018-06-08,제주특별자치도 제주시 한림읍 금악리 산1-1,y
365,서광우리집식당,제주특별자치도 서귀포시 녹차분재로59번길 8,불백맛집,33.2904838,126.3004762,2018-06-11,2018-06-11,제주특별자치도 서귀포시 안덕면 서광리 1394-9,y
364,제주자연사민속박물관,,제주역사,33.5064827,126.5330163,2018-06-11,2018-06-11,제주특별자치도 제주시 일도2동 833-3,y
363,한스패밀리,제주특별자치도 제주시 노형11길 5-5,제주특별자치도 제주시 노형13길 16,33.4844972,126.478938,2018-06-10,2018-06-10,제주특별자치도 제주시 노형동 3781-7,y
366,도착,제주특별자치도 제주시 공항로 2,ㅏ,33.5059983,126.492193,2018-06-11,2018-06-11,제주특별자치도 제주시 용담2동 2002,y
370,정듬식당(정성듬뿍제주),제주특별자치도 제주시 삼성로 55,"제주시 삼도2동 1069-2각재기국, 멜튀김, 장대기국",33.5075274,126.5310654,2018-06-13,2018-06-13,제주특별자치도 제주시 일도2동 1036-4,y
371,수진돌솥밥,제주특별자치도 제주시 삼성로 55,서귀포시 중앙동 291-37,33.2479195,126.5524409,2018-06-13,2018-06-13,제주특별자치도 서귀포시 천지동 534-3,y
378,푸르다오션펜션,제주특별자치도 제주시 월령3길 39,.,33.3795583,126.2165496,2018-06-15,2018-06-15,제주특별자치도 제주시 한림읍 월령리 330,y
373,한림바다체험마을,제주특별자치도 제주시 한림해안로 196 제주해양경찰서한림파출소,한림바다체험마을,33.4195577,126.262879,2018-06-14,2018-06-14,제주특별자치도 제주시 한림읍 대림리 2019-17,y
376,몽구네민박,제주특별자치도 서귀포시 무릉중앙로 43-11,숙소,33.2674813,126.1990941,2018-06-14,2018-06-14,제주특별자치도 서귀포시 대정읍 무릉리 3152-2,y
377,알동네집,제주특별자치도 제주시 연명로 545,고기,33.3165269,126.2674963,2018-06-14,2018-06-14,제주특별자치도 제주시 한경면 저지리 3174,y
379,헬스케어타운호텔앤리조트,제주특별자치도 서귀포시 솔오름로 28,둘째날 숙소,33.2851192,126.5574303,2018-06-15,2018-06-15,제주특별자치도 서귀포시 동홍동 2029-3,y
380,제주공항,제주특별자치도 제주시 공항로 2,"도착,출발",33.5069235,126.4928628,2018-06-15,2018-06-15,제주특별자치도 제주시 용담2동 2002,y
381,ASDAS,제주특별자치도 서귀포시 영실로 492,SD,33.3680829,126.5644007,2018-06-15,2018-06-15,제주특별자치도 서귀포시 남원읍 하례리 산1-7,y
382,TERER,제주특별자치도 서귀포시 영실로 492,ERTER,33.3780102,126.7232287,2018-06-15,2018-06-15,제주특별자치도 서귀포시 표선면 가시리 산30,y
383,E4REW,제주특별자치도 서귀포시 영실로 492,WERWE,33.3398852,126.7861512,2018-06-15,2018-06-15,제주특별자치도 서귀포시 표선면 세화리 2202,y
384,신선식당,제주특별자치도 서귀포시 하모중앙로32번길 3 해성가든,누룽지탕,33.2252824,126.2522568,2018-06-15,2018-06-15,제주특별자치도 서귀포시 대정읍 하모리 1423-20,y
447,제주새마을금고연수원,제주특별자치도 제주시 평화로 2175 새마을금고 제주연수원,제주새마을금고연수원,33.4133575,126.394017,2018-06-23,2018-06-23,제주특별자치도 제주시 애월읍 소길리 155-18,y
496,삼다해물뚝배기,,08:00 - 21:00 연중무휴주차가능064-733-0591,33.2543386,126.6161767,2018-06-26,2018-06-26,제주특별자치도 서귀포시 효돈동 871-1,y
497,해미원 횟집,,064-787-3311제주 서귀포시 표선면 민속해안로 578-2매일 11:30 - 23:00,33.3239958,126.843831,2018-06-26,2018-06-26,제주특별자치도 서귀포시 표선면 표선리 40-87,y
525,제주공항,제주특별자치도 제주시 공항로 2,제주공항,33.506662,126.4929751,2018-06-29,2018-06-29,제주특별자치도 제주시 용담2동 2002,y
625,방주교회,제주특별자치도 서귀포시 산록남로762번길 113,사진,33.3050432,126.3874115,2018-07-07,2018-07-07,제주특별자치도 서귀포시 안덕면 상천리 427,y
627,성이시돌목장,제주특별자치도 제주시 금악동길 35,사진,33.3469467,126.3273071,2018-07-07,2018-07-07,제주특별자치도 제주시 한림읍 금악리 124,y
628,제주오프로드,제주특별자치도 제주시 금악동길 35,오프로드,33.4893555,126.7184793,2018-07-07,2018-07-07,제주특별자치도 제주시 조천읍 선흘리 338-5,y
629,성읍랜드(카트라이더),제주특별자치도 제주시 금악동길 35,카트,33.3881115,126.8058202,2018-07-07,2018-07-07,제주특별자치도 서귀포시 표선면 성읍리 975-1,y
630,백약이오름,제주특별자치도 제주시 금악동길 35,산책 사진,33.4563393,126.7925369,2018-07-07,2018-07-07,제주특별자치도 제주시 구좌읍 송당리 산213-1,y
631,사려니숲길(사진),제주특별자치도 제주시 금악동길 35,사진,33.4222578,126.6268277,2018-07-07,2018-07-07,제주특별자치도 제주시 조천읍 교래리 산137-1,y
632,월정리해수욕장,제주특별자치도 제주시 월정7길 30,"투명카약,패들보드",33.5534969,126.7974552,2018-07-07,2018-07-07,제주특별자치도 제주시 구좌읍 월정리 112,y
633,세화해수욕장,제주특별자치도 제주시 세화7길 23-14,"카페공작속,풍력발전기",33.5244241,126.8610964,2018-07-07,2018-07-07,제주특별자치도 제주시 구좌읍 세화리 1477-9,y
634,우도,제주특별자치도 제주시 세화7길 23-14,"하고수도해수욕장,스쿠터타기",33.5033385,126.9588142,2018-07-07,2018-07-07,제주특별자치도 제주시 우도면 연평리 519-2,y
635,성산일출봉,제주특별자치도 제주시 세화7길 23-14,성산일출봉,33.4583197,126.9392085,2018-07-07,2018-07-07,제주특별자치도 서귀포시 성산읍 성산리 78,y
636,섭지코지(산책),제주특별자치도 제주시 세화7길 23-14,섭지코지,33.4283553,126.9301934,2018-07-07,2018-07-07,제주특별자치도 서귀포시 성산읍 고성리 148,y
637,간이옥돔역(카페),제주특별자치도 제주시 세화7길 23-14,카페,33.2852341,126.750019,2018-07-07,2018-07-07,제주특별자치도 서귀포시 남원읍 태흥리 364-4,y
639,천지연폭포(물놀이),제주특별자치도 제주시 세화7길 23-14,물놀이,33.2446809,126.5544793,2018-07-07,2018-07-07,제주특별자치도 서귀포시 천지동 582-1,y
640,황우지해변,제주특별자치도 제주시 세화7길 23-14,물놀이,33.2414272,126.5507576,2018-07-07,2018-07-07,제주특별자치도 서귀포시 천지동,y
644,보롬왓(수국),제주특별자치도 서귀포시 번영로 2300,수국,33.4145574,126.7515657,2018-07-07,2018-07-07,제주특별자치도 서귀포시 표선면 성읍리 3229-1,y
654,용두암해수랜드,제주특별자치도 제주시 서해안로 630,용두암해수랜드. 24000원,33.5160749,126.5043809,2018-07-09,2018-07-09,제주특별자치도 제주시 용담2동 1006-3,y
647,청호식당,제주특별자치도 제주시 1100로 2070-510 윗세오름대피소,ㅇ,33.4108897,126.9075826,2018-07-08,2018-07-08,제주특별자치도 서귀포시 성산읍 온평리 660-2,y
648,해피렌터카,제주특별자치도 제주시 오일장서길 76,ㅇ,33.4979326,126.4717869,2018-07-08,2018-07-08,제주특별자치도 제주시 도두동 2162-1,y
651,한우궁,제주특별자치도 제주시 신대로9길 7,ㅇ,33.4908689,126.4977132,2018-07-08,2018-07-08,제주특별자치도 제주시 연동 311-20,y
652,제주공항,제주특별자치도 제주시 공항로 2,공항,33.5058061,126.4935107,2018-07-09,2018-07-09,제주특별자치도 제주시 용담2동 1462,y
662,미라 게스트하우스,제주특별자치도 제주시 용문로17길 9 한양아트빌딩,첫 날 숙소,33.5076484,126.5084509,2018-07-09,2018-07-09,제주특별자치도 제주시 용담2동 646-54,y
668,마라도가는 여객선,제주특별자치도 서귀포시 중정로61번길 11-1 경림여관,마라도 가즈아,33.2063624,126.2909865,2018-07-09,2018-07-09,제주특별자치도 서귀포시 중앙동 292-13,y
680,우도등대공원,제주특별자치도 제주시 우도봉길 105,우도등대공원,33.4929123,126.9651314,2018-07-09,2018-07-09,제주특별자치도 제주시 우도면 연평리 337,y
678,제주 공항,,도착,33.4989513,126.492031,2018-07-09,2018-07-09,제주특별자치도 제주시 용담2동 1887-1,y
679,함덕 해수욕장,제주특별자치도 제주시 함덕19길 13,포토타임/,33.5415462,126.6704142,2018-07-09,2018-07-09,제주특별자치도 제주시 조천읍 함덕리 960-22,y
683,짱구분식,제주특별자치도 서귀포시 중동로48번길 1-4,모닥치기,33.2501625,126.5671488,2018-07-10,2018-07-10,제주특별자치도 서귀포시 중앙동 254-2,y
684,공항,제주특별자치도 제주시 공항로 2,여행의시작,33.5069651,126.4928907,2018-07-10,2018-07-10,제주특별자치도 제주시 용담2동 2002,y
424,퍼스트70호텔,제주특별자치도 서귀포시 명동로 46 글램블루호텔,숙소,33.2470353,126.5668401,2018-06-19,2018-06-19,제주특별자치도 서귀포시 정방동 182,y
425,로타리과자점,제주특별자치도 서귀포시 동문로 14-1,빵,33.2516647,126.5626567,2018-06-19,2018-06-19,제주특별자치도 서귀포시 중앙동 286-2,y
426,공감,제주특별자치도 서귀포시 516로 1648-87,리더스,33.3437268,126.6533817,2018-06-19,2018-06-19,제주특별자치도 서귀포시 남원읍 한남리 산2-1,y
449,켄싱턴리조트 서귀포점,제주특별자치도 서귀포시 이어도로 684 켄싱턴리조트,리조트,33.2343946,126.4892032,2018-06-23,2018-06-23,제주특별자치도 서귀포시 대천동 2677,y
439,김해국제공항,부산광역시 강서구 공항진입로42번길 54,국제공항,35.173114,128.9468004,2018-06-21,2018-06-21,부산광역시 강서구 대저2동 2350-1,y
440,제주국제공항,제주특별자치도 제주시 공항로 2,제주국제공항,33.5063761,126.4926946,2018-06-21,2018-06-21,제주특별자치도 제주시 용담2동 2002,y
522,airport & rent care,,ㅇ,33.500922,126.4923251,2018-06-28,2018-06-28,제주특별자치도 제주시 도두동 71,y
526,제주공항,,제주공항 도착,33.5062535,126.49314,2018-06-29,2018-06-29,제주특별자치도 제주시 용담2동 2002-7,y
527,비자림,,비자림,33.4841934,126.8070695,2018-06-29,2018-06-29,제주특별자치도 제주시 구좌읍 평대리 산15,y
528,용눈이오름,,용눈이오름,33.4589583,126.8322102,2018-06-29,2018-06-29,제주특별자치도 제주시 구좌읍 종달리 산38,y
534,까망돼지,제주특별자치도 서귀포시 색달중앙로 21 여미지하우스,저녁식사,33.2573799,126.4134252,2018-06-30,2018-06-30,제주특별자치도 서귀포시 예래동 2534-9,y
543,금능해수욕장,,.,33.3886892,126.2346305,2018-06-30,2018-06-30,제주특별자치도 제주시 한림읍 협재리 2695-2,y
544,비자림,,.,33.4733869,126.8139876,2018-06-30,2018-06-30,제주특별자치도 제주시 구좌읍 세화리 3577,y
591,웨이브,제주특별자치도 서귀포시 표선당포로 10-4,수제버거,33.3252602,126.8436965,2018-07-05,2018-07-05,제주특별자치도 서귀포시 표선면 표선리 40-46,y
548,예촌연수네가든,제주특별자치도 서귀포시 신례동로 60,닭샤브샤브,33.2909659,126.6341598,2018-07-01,2018-07-01,제주특별자치도 서귀포시 남원읍 신례리 1382-2,y
599,도착쿠,제주특별자치도 제주시 공항로 2,12:00 도착 예정,33.5054733,126.4919554,2018-07-05,2018-07-05,제주특별자치도 제주시 용담2동 2002,y
589,zzz제주흑돼지,제주특별자치도 제주시 신대로 104,흑돼지집,33.487992,126.4962037,2018-07-05,2018-07-05,제주특별자치도 제주시 연동 302-3,y
596,공항,,도착,33.4941747,126.4913343,2018-07-05,2018-07-05,제주특별자치도 제주시 도두동 159-3,y
682,더퍼스트70호텔,제주특별자치도 서귀포시 명동로 46 글램블루호텔,숙소,33.2470804,126.5668101,2018-07-10,2018-07-10,제주특별자치도 서귀포시 정방동 186,y
685,자전거대여,제주특별자치도 제주시 공항로 2,11,33.4983804,126.5394997,2018-07-10,2018-07-10,제주특별자치도 제주시 이도2동 444,y
686,1번,제주특별자치도 제주시 용두암길 15,용두암,33.5151255,126.5121297,2018-07-10,2018-07-10,제주특별자치도 제주시 용담2동 483,y
687,2,제주특별자치도 제주시 용두암길 15,다락쉼터,33.4705223,126.3410107,2018-07-10,2018-07-10,제주특별자치도 제주시 애월읍 고내리 462,y
688,제주청소년수련원,제주특별자치도 제주시 금능남로 128,숙소,33.3777096,126.2365028,2018-07-10,2018-07-10,제주특별자치도 제주시 한림읍 금능리 2243-1,y
689,3,제주특별자치도 제주시 금능남로 128,해거름,33.3706143,126.2066674,2018-07-10,2018-07-10,제주특별자치도 제주시 한경면 판포리 1602-1,y
690,4,제주특별자치도 제주시 금능남로 128,송악산,33.2052098,126.2890791,2018-07-10,2018-07-10,제주특별자치도 서귀포시 대정읍 상모리 179-1,y
691,5,제주특별자치도 제주시 금능남로 128,법환바당,33.2376006,126.5127827,2018-07-10,2018-07-10,제주특별자치도 서귀포시 대륜동 1219-13,y
692,6,제주특별자치도 제주시 금능남로 128,쇠소깍,33.2521445,126.6235407,2018-07-10,2018-07-10,제주특별자치도 서귀포시 대륜동 1219-13,y
693,7,제주특별자치도 서귀포시 표선백사로110번길 23,표손해수욕장,33.323779,126.8380794,2018-07-10,2018-07-10,제주특별자치도 서귀포시 표선면 표선리 40-66,y
694,8,제주특별자치도 서귀포시 표선백사로110번길 23,성산일출봉,33.4685174,126.9225935,2018-07-10,2018-07-10,제주특별자치도 서귀포시 표선면 표선리 40-66,y
695,9,제주특별자치도 제주시 해맞이해안로 9,김녕성해변,33.5568331,126.7607432,2018-07-10,2018-07-10,제주특별자치도 제주시 구좌읍 김녕리 497-4,y
696,10,제주특별자치도 제주시 조함해안로 525,함덕해수욕장,33.5428753,126.6703264,2018-07-10,2018-07-10,제주특별자치도 제주시 조천읍 함덕리 산14-1,y
697,한담공원(첫째날갈수있음,제주특별자치도 제주시 조함해안로 525,1날 갈수있음,33.4596445,126.311029,2018-07-10,2018-07-10,제주특별자치도 제주시 애월읍 애월리 2459-1,y
701,용머리해안 기괴암벽,제주특별자치도 제주시 월령안길 6,ㄴㄴ,33.23191,126.3154603,2018-07-10,2018-07-10,제주특별자치도 제주시 구좌읍 월정리 산41-3,y
429,임금님밥상,제주특별자치도 제주시 은남3길 1,생선구이 오징어볶음,33.4871374,126.4955073,2018-06-20,2018-06-20,제주특별자치도 제주시 연동 293-58,y
433,무안국제공항,전라남도 무안군 공항로 970-260 무안국제공항,oz 8161 am 6:20 출발,34.9935733,126.3881739,2018-06-21,2018-06-21,전라남도 무안군 망운면 피서리 1065,y
533,꿈에그린펜션,제주특별자치도 서귀포시 천제연로 65 꿈에그린펜션,숙소,33.2562094,126.4129041,2018-06-30,2018-06-30,제주특별자치도 서귀포시 예래동 2532-1,y
529,제주 아비앙또,제주특별자치도 서귀포시 일주동로4120번길 130-42,숙소,33.4577779,126.9001271,2018-06-29,2018-06-29,제주특별자치도 서귀포시 성산읍 오조리 1611-2,y
532,제주국제공항,제주특별자치도 제주시 공항로 2,도착,33.5069547,126.4929072,2018-06-30,2018-06-30,제주특별자치도 제주시 용담2동 2002,y
535,망고레이,제주특별자치도 제주시 하귀9길 34,1,33.4840092,126.4160246,2018-06-30,2018-06-30,제주특별자치도 제주시 애월읍 하귀1리 157-6,y
567,에코랜드,제주특별자치도 제주시 남조로 1982,에코랜드,33.44703,126.6713151,2018-07-03,2018-07-03,제주특별자치도 제주시 조천읍 교래리 385-1,y
608,제주 사진집,제주특별자치도 서귀포시 일주서로 1613-83,숙소2,33.2500665,126.3410949,2018-07-06,2018-07-06,제주특별자치도 서귀포시 안덕면 화순리 1369-5,y
586,제주공항,제주특별자치도 제주시 공항로 2,공항도착,33.5070277,126.4928459,2018-07-04,2018-07-04,제주특별자치도 제주시 용담2동 2002,y
626,오설록티뮤지업,제주특별자치도 서귀포시 산록남로762번길 113,티,33.3032153,126.2926066,2018-07-07,2018-07-07,제주특별자치도 서귀포시 안덕면 서광리 1224-11,y
641,김경숙해바라기농장,제주특별자치도 제주시 번영로 854-1,해바라기농장,33.4775863,126.6280489,2018-07-07,2018-07-07,제주특별자치도 제주시 봉개동 391,y
638,쇠소깍(구경),제주특별자치도 제주시 세화7길 23-14,구경,33.2510328,126.6268063,2018-07-07,2018-07-07,제주특별자치도 서귀포시 남원읍 태흥리 364-4,y
642,아침미소목장,제주특별자치도 제주시 번영로 854-1,"아이스크림만들기,송아지우유주기",33.4548342,126.5864531,2018-07-07,2018-07-07,제주특별자치도 제주시 아라동 1377,y
643,더포그레이스 (숙소),제주특별자치도 제주시 번영로 854-1,숙소,33.4729021,126.9118857,2018-07-07,2018-07-07,제주특별자치도 서귀포시 성산읍 시흥리 210,y
704,천제연폭포,제주특별자치도 서귀포시 중문관광로110번길 15,ㅁㅁ,33.2498654,126.41299,2018-07-10,2018-07-10,제주특별자치도 서귀포시 예래동 2864-36,y
705,아쿠와 플라넷 수족관,제주특별자치도 서귀포시 섭지코지로 95 Aqua Planet Jeju,ㅌㅌ,33.4316759,126.9283529,2018-07-10,2018-07-10,제주특별자치도 서귀포시 성산읍 고성리 127-3,y
708,제주뚝배기 전복뚝배기,제주특별자치도 서귀포시 섭지코지로 107 휘닉스아일랜드콘도,ㅇ,33.4601868,126.9318951,2018-07-10,2018-07-10,제주특별자치도 서귀포시 성산읍 오조리 865,y
713,MATRO,제주특별자치도 제주시 중앙로 13,장보기,33.5169237,126.5255138,2018-07-10,2018-07-10,제주특별자치도 제주시 건입동 1441,y
711,중문 제이힐&시티 호텔,제주특별자치도 서귀포시 천제연로188번길 15 예그린하우스,1일차 숙소,33.2507361,126.4245574,2018-07-10,2018-07-10,제주특별자치도 서귀포시 중문동 2049-1,y
712,송악산항 ,제주특별자치도 서귀포시 천제연로188번길 15 예그린하우스,마라도 여객선,33.2069373,126.2907652,2018-07-10,2018-07-10,제주특별자치도 서귀포시 대정읍 상모리 130-8,y
714,삼양해수욕장,제주특별자치도 제주시 선사로8길 13-6,검은모래,33.5258871,126.5867512,2018-07-10,2018-07-10,제주특별자치도 제주시 삼양동 1569-24,y
715,아이브리조트,제주특별자치도 서귀포시 산록남로 1966-34 제주아이브,숙소,33.2883509,126.4966179,2018-07-10,2018-07-10,제주특별자치도 서귀포시 대천동 224,y
716,제주공항,,비행,33.5043817,126.4925882,2018-07-10,2018-07-10,제주특별자치도 제주시 용담2동 1946,y
717,왕따나무,,왕따나무,33.3510716,126.3485254,2018-07-10,2018-07-10,제주특별자치도 제주시 한림읍 금악리 산30-8,y
718,성이시돌목장,제주특별자치도 제주시 금악동길 35,성이시돌목장,33.346977,126.3273081,2018-07-10,2018-07-10,제주특별자치도 제주시 한림읍 금악리 124,y
719,공항,,제주도 도착,33.5018986,126.4995758,2018-07-11,2018-07-11,제주특별자치도 제주시 용담2동 1653,y
720,제주공항,,제주공항 도착,33.5014107,126.4892465,2018-07-11,2018-07-11,제주특별자치도 제주시 도두동 353-3,y
726,하나로마트 성산일출봉점,제주특별자치도 서귀포시 섭지코지로 35,하나로마트 성산일출봉점,33.4658272,126.9344896,2018-07-12,2018-07-12,제주특별자치도 서귀포시 성산읍 성산리 277,y
725,먹/오후새우시,제주특별자치도 서귀포시 천제연로 184-1 명동춘천닭갈비,레몬버터갈릭새우 9천원와사마요게살김밥 6천원,33.2516014,126.4242772,2018-07-11,2018-07-11,제주특별자치도 서귀포시 중문동 2119-4,y
723,비앤썬 펜션,,비앤썬 펜션 ,33.4333027,126.9227383,2018-07-11,2018-07-11,제주특별자치도 서귀포시 성산읍 고성리 809,y
724,제주공항,제주특별자치도 제주시 공항로 2,도착,33.5067537,126.4928668,2018-07-11,2018-07-11,제주특별자치도 제주시 용담2동 2002,y
727,제주항,,제주항,33.5217837,126.5396624,2018-07-12,2018-07-12,제주특별자치도 제주시 건입동 908-12,y
432,제주공항,,도착,33.4776351,126.4970995,2018-06-21,2018-06-21,제주특별자치도 제주시 연동 566,y
455,버드나무집,,칼국수맛집,33.5414763,126.6674255,2018-06-24,2018-06-24,제주특별자치도 제주시 조천읍 함덕리 1002-66,y
423,가라지하우스,제주특별자치도 서귀포시 산방로388번길 2,숙소,33.2317496,126.2956207,2018-06-19,2018-06-19,제주특별자치도 서귀포시 안덕면 사계리 2816-1,y
427,성산일출봉,제주특별자치도 서귀포시 일출로 248,자연경관,33.4596682,126.9447739,2018-06-20,2018-06-20,대한민국,y
443,숙소,제주특별자치도 서귀포시 일주동로 6337,숙소,33.3056538,126.7951466,2018-06-22,2018-06-22,제주특별자치도 서귀포시 표선면 세화리 1569,y
445,4.3유적지섯알오름학살터유적비,제주특별자치도 서귀포시 일주동로 6337,근처에 알뜨르비행장이고 남쪽 절벽으로는 진지동굴,33.2057335,126.2809807,2018-06-22,2018-06-22,제주특별자치도 서귀포시 대정읍 상모리 1590-3,y
500,자매국수,제주특별자치도 제주시 삼성로 67,고기국수,33.5080779,126.5323771,2018-06-26,2018-06-26,제주특별자치도 제주시 일도2동 1034-10,y
501,제주인하우스펜션,제주특별자치도 서귀포시 법환상로2번길 57,잘곳!,33.2442527,126.5147256,2018-06-27,2018-06-27,제주특별자치도 서귀포시 대륜동 629-1,y
502,제주공항,제주특별자치도 제주시 공항로 2,공항,33.5069536,126.4931494,2018-06-27,2018-06-27,제주특별자치도 제주시 용담2동 2002,y
503,차,제주특별자치도 제주시 공항로 2,쏘카,33.4939383,126.4914001,2018-06-27,2018-06-27,제주특별자치도 제주시 도두동 162-14,y
504,무거버거,제주특별자치도 제주시 조함해안로 356,햄버거/해변,33.548971,126.6550395,2018-06-27,2018-06-27,제주특별자치도 제주시 조천읍 신흥리 15-4,y
505,솔동산고기국수,제주특별자치도 서귀포시 부두로 23 유림갈비,고기국수,33.2429358,126.5652559,2018-06-27,2018-06-27,제주특별자치도 서귀포시 송산동 724-5,y
506,아쿠아플라넷제주입구,제주특별자치도 서귀포시 섭지코지로 95 Aqua Planet Jeju,아쿠아리움,33.4345895,126.9250158,2018-06-27,2018-06-27,제주특별자치도 서귀포시 성산읍 고성리 127-6,y
507,공항,,도착 11:00렌트카 13:30,33.4980092,126.4968646,2018-06-27,2018-06-27,제주특별자치도 제주시 용담2동 1762-2,y
510,제주공항,,공항,33.5044484,126.4936898,2018-06-27,2018-06-27,제주특별자치도 제주시 용담2동 1946,y
511,게스트하우스 에녹,제주특별자치도 제주시 서흘길 38,게스트 하우스,33.528539,126.5895108,2018-06-27,2018-06-27,제주특별자치도 제주시 삼양동 1580-2,y
512,이기풍선교기념관,제주특별자치도 제주시 남조로 2125,"숙소, 기념관",33.4563523,126.6605459,2018-06-27,2018-06-27,제주특별자치도 제주시 조천읍 와흘리 산14-3,y
514,숙소 (에어비엔비),제주특별자치도 제주시 1100로 2070-510 윗세오름대피소,2박 예정,33.2445732,126.5869455,2018-06-27,2018-06-27,제주특별자치도 서귀포시 송산동 387-1,y
515,호텔 시리우스,제주특별자치도 제주시 도령로 133,가나다라,33.4934287,126.4909374,2018-06-27,2018-06-27,제주특별자치도 제주시 연동 2334-4,y
516,성이시돌 목장,,가나다라,33.3470084,126.327486,2018-06-27,2018-06-27,제주특별자치도 제주시 한림읍 금악리 135-1,y
537,공항,,도착 픽업,33.4933471,126.491407,2018-06-30,2018-06-30,제주특별자치도 제주시 연동 2335-4,y
538,성산일출봉,,.,33.4437934,126.9319644,2018-06-30,2018-06-30,대한민국,y
539,한라수목원 ,,야시장,33.4581789,126.496635,2018-06-30,2018-06-30,제주특별자치도 제주시 연동 739,y
540,우도,,.,33.4999054,126.9584695,2018-06-30,2018-06-30,제주특별자치도 제주시 우도면 연평리 435,y
541,협재해수욕장,,.,33.3715852,126.261662,2018-06-30,2018-06-30,제주특별자치도 제주시 한림읍 상명리 1921-1,y
542,한라산,,.,33.3749693,126.5209834,2018-06-30,2018-06-30,제주특별자치도 제주시 노형동 산220-12,y
545,제주절물휴양림,제주특별자치도 제주시 명림로 584 절물휴양림,.,33.4241549,126.6243778,2018-06-30,2018-06-30,제주특별자치도 제주시 봉개동 산78-1,y
547,수목원테마파크,,.,33.4701559,126.488146,2018-07-01,2018-07-01,제주특별자치도 제주시 연동 1321,y
556,제주공항,,공항,33.5002619,126.4899488,2018-07-02,2018-07-02,제주특별자치도 제주시 도두동 96-3,y
562,명송리조트,,1일차 리조트,33.4347978,126.7354309,2018-07-03,2018-07-03,제주특별자치도 제주시 구좌읍 송당리 2629,y
560,채움풀빌라,제주특별자치도 서귀포시 대포중앙로 44,키즈풀빌라,33.2473802,126.4324221,2018-07-03,2018-07-03,제주특별자치도 서귀포시 중문동 779,y
561,mj리조트,,오션뷰리조트,33.5286872,126.8793975,2018-07-03,2018-07-03,제주특별자치도 제주시 구좌읍 하도리 1893-1,y
563,아리랑렌트카,제주특별자치도 제주시 용마서길 34,렌트카대여반납,33.5149608,126.5021045,2018-07-03,2018-07-03,제주특별자치도 제주시 용담2동 970-3,y
568,제주민속촌,제주특별자치도 서귀포시 민속해안로 631-34,민속촌,33.3217528,126.8416099,2018-07-03,2018-07-03,제주특별자치도 서귀포시 표선면 표선리 40-1,y
581,솔펜션,제주특별자치도 서귀포시 1100로 731-32 푸른목장,펜션,33.4862666,126.9028631,2018-07-04,2018-07-04,대한민국,y
584,피규어 박물관,제주특별자치도 서귀포시 한창로 243,ㅇ,33.2817516,126.3555068,2018-07-04,2018-07-04,제주특별자치도 서귀포시 안덕면 상창리 1875-8,y
585,사려니숲길,,ㅇ,33.3303539,126.5521516,2018-07-04,2018-07-04,제주특별자치도 서귀포시 영천동 산1,y
587,문개항아리,제주특별자치도 제주시 조함해안로 217-1,문어라면,33.5534537,126.6439448,2018-07-04,2018-07-04,제주특별자치도 제주시 조천읍 신흥리 792-1,y
588,아이미제주비치호텔,제주특별자치도 제주시 조함해안로 474 제주비치,숙소,33.5433127,126.6634124,2018-07-05,2018-07-05,제주특별자치도 제주시 조천읍 함덕리 1011,y
600,네이처트레일,제주특별자치도 제주시 홍수암로 30-5,숙소,33.3826072,126.2253466,2018-07-05,2018-07-05,제주특별자치도 제주시 한림읍 금능리 1842-6,y
602,제이힐호텔,제주특별자치도 서귀포시 천제연로188번길 11,1박,33.2507771,126.4246882,2018-07-05,2018-07-05,제주특별자치도 서귀포시 중문동 2050-1,y
610,윈드스톤,제주특별자치도 제주시 광성로 277,카페,33.460696,126.4363692,2018-07-06,2018-07-06,제주특별자치도 제주시 애월읍 광령리 1345-1,y
612,스시앤,제주특별자치도 제주시 고산동산5길 24,스시,33.4961304,126.5353437,2018-07-06,2018-07-06,제주특별자치도 제주시 이도2동 1059-16,y
614,종종식당,제주특별자치도 제주시 용담로 3 제주출입국관리사무소,식당,33.5136148,126.5029779,2018-07-06,2018-07-06,제주특별자치도 제주시 용담2동 953,y
659,용두암,제주특별자치도 제주시 서해안로 687-1,용담공원까지,33.5157914,126.5120243,2018-07-09,2018-07-09,제주특별자치도 제주시 용담2동 488-5,y
650,한우궁,제주특별자치도 제주시 신대로9길 7,ㅇ,33.4908545,126.4976719,2018-07-08,2018-07-08,제주특별자치도 제주시 연동 311-20,y
653,제주공항,제주특별자치도 제주시 공항로 2,제주공항,33.5059343,126.4918604,2018-07-09,2018-07-09,제주특별자치도 제주시 용담2동 2002,y
656,숙소,제주특별자치도 서귀포시 신천동로38번길 20,숙소 가인,33.3442388,126.8540453,2018-07-09,2018-07-09,제주특별자치도 서귀포시 성산읍 신천리 238,y
658,미라 게하,제주특별자치도 제주시 중앙로15길 7,첫 날 숙소,33.5112739,126.511139,2018-07-09,2018-07-09,제주특별자치도 제주시 용담2동 358-33,y
661,공항,,제주국제공항,33.5061166,126.4929814,2018-07-09,2018-07-09,제주특별자치도 제주시 용담2동 1984-5,y
663,성산항,제주특별자치도 서귀포시 성산등용로 107-17,우도 가는 항,33.4710487,126.9296791,2018-07-09,2018-07-09,제주특별자치도 서귀포시 성산읍 성산리 347-5,y
674,하우목동포구,제주특별자치도 제주시 우도해안길 341,우도도착,33.5092036,126.9435234,2018-07-09,2018-07-09,제주특별자치도 제주시 우도면 연평리 2395-7,y
665,스트로베리필드,제주특별자치도 서귀포시 중정로61번길 11-1 경림여관,셋째날 숙소,33.2488961,126.5627229,2018-07-09,2018-07-09,제주특별자치도 서귀포시 중앙동 292-13,y
671,놀맨,제주특별자치도 제주시 애월로1길 25,라면가게,33.4624278,126.3096003,2018-07-09,2018-07-09,제주특별자치도 제주시 애월읍 애월리 2540,y
669,협재해변,제주특별자치도 제주시 한림로 329-10,,33.3939063,126.2397728,2018-07-09,2018-07-09,제주특별자치도 제주시 한림읍 협재리 2447,y
670,제주엔젤렌트카,제주특별자치도 제주시 도령로 171-1,렌트카,33.4963435,126.4930136,2018-07-09,2018-07-09,제주특별자치도 제주시 용담2동 1815,y
672,제주공항,,도착,33.5053054,126.4940244,2018-07-09,2018-07-09,제주특별자치도 제주시 용담2동 1462,y
698,월령마을 선인장마을 둘째날,제주특별자치도 제주시 월령안길 6,ㅁㅁ,33.3773172,126.2157891,2018-07-10,2018-07-10,제주특별자치도 제주시 한림읍 월령리 356-1,y
677,이호테우,,말 등대,33.4959053,126.4524519,2018-07-09,2018-07-09,제주특별자치도 제주시 이호동 1662,y
681,국수만찬,제주특별자치도 제주시 은남3길 1,고기국수 맛집!,33.4871603,126.4955037,2018-07-10,2018-07-10,제주특별자치도 제주시 연동 293-58,y
699,협재해수욕장 포카리맑은물,제주특별자치도 제주시 월령안길 6,ㅌㅌ,33.3945899,126.2398601,2018-07-10,2018-07-10,제주특별자치도 제주시 한림읍 월령리 356-1,y
700,만장굴,제주특별자치도 제주시 월령안길 6,ㅋㅋ,33.5280662,126.7710062,2018-07-10,2018-07-10,제주특별자치도 제주시 구좌읍 월정리 산41-3,y
702,찹ㄱ물관 \동굴카페,제주특별자치도 제주시 월령안길 6,ㅁㅁ,33.4820584,126.7080183,2018-07-10,2018-07-10,제주특별자치도 제주시 조천읍 선흘리 570,y
703,주상절리,제주특별자치도 제주시 월령안길 6,ㅁㅁ,33.2374101,126.4258064,2018-07-10,2018-07-10,제주특별자치도 서귀포시 중문동 2769-1,y
706,섭지코지 아름다운곳,제주특별자치도 서귀포시 섭지코지로 107 휘닉스아일랜드콘도,ㅇㅇ,33.424171,126.9305637,2018-07-10,2018-07-10,제주특별자치도 서귀포시 성산읍 고성리 87,y
707,칠돈가 흑돼지 음식점,제주특별자치도 서귀포시 섭지코지로 107 휘닉스아일랜드콘도,ㄴㄴ,33.4582746,126.9132926,2018-07-10,2018-07-10,제주특별자치도 서귀포시 성산읍 오조리 865,y
709,시옛촌 음식점 전복 아침,제주특별자치도 서귀포시 사계북로41번길 130-67,ㅎㅎ,33.2492208,126.3008792,2018-07-10,2018-07-10,제주특별자치도 서귀포시 안덕면 사계리 941,y
436,제주국제공항,제주특별자치도 제주시 공항로 2,국제공항,33.5066058,126.4928035,2018-06-21,2018-06-21,제주특별자치도 제주시 용담2동 2002,y
431,제주공항 도착 ,제주특별자치도 제주시 공항로 2,17:40분 출발 - 18:40 도착,33.5070371,126.4926047,2018-06-20,2018-06-20,제주특별자치도 제주시 용담2동 2002,y
435,그랜드 스타렉스 렌트카,제주특별자치도 제주시 다호북길 7,am 8:00 셔틀 버스 운행 및 오픈,33.5033844,126.4934277,2018-06-21,2018-06-21,제주특별자치도 제주시 용담2동 2580-77,y
437,신엄리방파제,,투썸플레이스 제주애월점으로,33.4738891,126.3511839,2018-06-21,2018-06-21,제주특별자치도 제주시 아라동 산182-19,y
441,공항,,제주도착,33.5058878,126.4932425,2018-06-21,2018-06-21,제주특별자치도 제주시 용담2동 1984-5,y
442,제주시내,제주특별자치도 제주시 문연로 6,구경,33.4888642,126.4982402,2018-06-21,2018-06-21,제주특별자치도 제주시 연동 312-1,y
444,선녀탕(외돌개부근),제주특별자치도 서귀포시 일주동로 6337,선녀탕(외돌개부근),33.2396654,126.5486914,2018-06-22,2018-06-22,제주특별자치도 서귀포시 천지동,y
446,공항,제주특별자치도 제주시 신광로1길 27,도착 8시 35분,33.4926477,126.4919938,2018-06-22,2018-06-22,제주특별자치도 제주시 연동 280-41,y
448,유재덕의산양산삼해물라면,제주특별자치도 제주시 테우해안로 150,산삼이 한부리가 들어가는 산양산삼해물라면,33.4970161,126.4496976,2018-06-23,2018-06-23,제주특별자치도 제주시 이호동 1785,y
450,오션파크,,스노쿨링,33.478281,126.908118,2018-06-23,2018-06-23,제주특별자치도 서귀포시 성산읍 시흥리 2642-4,y
451,하도댁흑돼지두루치기,제주특별자치도 제주시 세화1길 25,흑돼지두루치기,33.5256709,126.8546074,2018-06-23,2018-06-23,제주특별자치도 제주시 구좌읍 세화리 3645-3,y
452,칠돈가 중문점,,서귀포시 중문관광로8,33.2878218,126.3499706,2018-06-23,2018-06-23,제주특별자치도 서귀포시 안덕면 상창리 산61,y
453,마이도,제주특별자치도 제주시 비월남길 34,제주시 은남2길 35(딱새우회),33.4790212,126.498988,2018-06-23,2018-06-23,제주특별자치도 제주시 연동 493-1,y
454,공항,,공항,33.5018596,126.4947533,2018-06-24,2018-06-24,제주특별자치도 제주시 용담2동 1921,y
457,제주공항,제주특별자치도 제주시 공항로 2,공항,33.5063529,126.493219,2018-06-25,2018-06-25,제주특별자치도 제주시 용담2동 2002-7,y
458,퍼스트 70호텔,제주특별자치도 서귀포시 명동로 46 글램블루호텔,첫날숙소,33.2469713,126.5667237,2018-06-25,2018-06-25,제주특별자치도 서귀포시 정방동 182,y
459,하워드존슨호텔,제주특별자치도 제주시 삼무로 57,둘쨋날 숙소,33.4900172,126.4926503,2018-06-25,2018-06-25,제주특별자치도 제주시 연동 281-24,y
463,궷물오름,,오름 등반,33.3967737,126.4066762,2018-06-25,2018-06-25,제주특별자치도 제주시 애월읍 유수암리 산136-6,y
464,w오션펜션,제주특별자치도 서귀포시 대포로 30,1일차 숙소,33.2469577,126.431578,2018-06-25,2018-06-25,제주특별자치도 서귀포시 중문동 2606,y
465,더 클리프,제주특별자치도 서귀포시 중문관광로 154-17,술,33.2444227,126.4149313,2018-06-25,2018-06-25,제주특별자치도 서귀포시 예래동 2950-4,y
466,올레안뜰(돈까스),제주특별자치도 서귀포시 법환로 24,1일차 저녁,33.2371379,126.5129082,2018-06-25,2018-06-25,제주특별자치도 서귀포시 대륜동 229,y
467,크랩잭,제주특별자치도 제주시 애월해안로 765,1일차 점심,33.4854159,126.3818089,2018-06-25,2018-06-25,제주특별자치도 제주시 애월읍 구엄리 505,y
469,ㅇㅇ,제주특별자치도 제주시 동명7길 66,ㄴㄴ,33.3958553,126.2702431,2018-06-25,2018-06-25,제주특별자치도 제주시 한림읍 동명리 854-2,y
470,마니펜션솔밭점,,우리를 편하게한달을 보내게해줄 나만에 한달살이집,33.3973297,126.8461877,2018-06-26,2018-06-26,제주특별자치도 서귀포시 성산읍 난산리 2445,y
482,오설록,제주특별자치도 서귀포시 동류암로 20,녹차,33.2991528,126.2902993,2018-06-26,2018-06-26,제주특별자치도 서귀포시 안덕면 서광리 2489-32,y
473,미풍해장국,제주특별자치도 서귀포시 일출로 240,해장국,33.4604547,126.9316644,2018-06-26,2018-06-26,제주특별자치도 서귀포시 성산읍 성산리 399-24,y
481,중산간도로,제주특별자치도 서귀포시 동류암로 20,도로,33.2894093,126.5076399,2018-06-26,2018-06-26,제주특별자치도 서귀포시 대천동 17,y
483,숙소,제주특별자치도 서귀포시 평화로 767 산바다ATV,신화랜드,33.3007244,126.3351574,2018-06-26,2018-06-26,제주특별자치도 서귀포시 안덕면 동광리 1056,y
486,산방산,제주특별자치도 서귀포시 평화로 767 산바다ATV,산,33.2370985,126.3185784,2018-06-26,2018-06-26,제주특별자치도 서귀포시 정방동,y
487,모슬포항,제주특별자치도 서귀포시 평화로 767 산바다ATV,항구,33.2133878,126.2548619,2018-06-26,2018-06-26,제주특별자치도 서귀포시 대정읍 하모리 662,y
490,협제해수욕장,제주특별자치도 제주시 한림로 300,해수욕장,33.3887933,126.2421548,2018-06-26,2018-06-26,제주특별자치도 제주시 한림읍 협재리 2610-1,y
491,크랩잭,제주특별자치도 제주시 한림로 300,식사,33.4860954,126.3822612,2018-06-26,2018-06-26,제주특별자치도 제주시 애월읍 구엄리 461-2,y
492,용두암,제주특별자치도 제주시 서해안로 687-6,바위,33.5156153,126.5118329,2018-06-26,2018-06-26,제주특별자치도 제주시 용담2동 488,y
428,하우목동포구,제주특별자치도 서귀포시 성산등용로 112-7,우도항,33.5093925,126.9423248,2018-06-20,2018-06-20,제주특별자치도 서귀포시 성산읍 성산리 347-9,y
493,렌트카반납,제주특별자치도 제주시 서해안로 687-6,렌트,33.5159432,126.5032261,2018-06-26,2018-06-26,제주특별자치도 제주시 용담2동 1032-4,y
494,대구공항,대구광역시 동구 공항로 221 대국국제공항,공항,35.8998837,128.6373515,2018-06-26,2018-06-26,대구광역시 동구 지저동 400-5,y
495,사려니숲길,제주특별자치도 제주시 명림로 584 절물휴양림,숲,33.422483,126.62577,2018-06-26,2018-06-26,제주특별자치도 제주시 봉개동 산78-1,y
499,칠돈가,제주특별자치도 서귀포시 민속해안로 537,수요일 휴무,33.3236651,126.8453101,2018-06-26,2018-06-26,제주특별자치도 서귀포시 표선면 표선리 40-69,y
508,기원뚝배기,제주특별자치도 서귀포시 예래해안로 542,갈치 조림,33.2551778,126.402869,2018-06-27,2018-06-27,제주특별자치도 서귀포시 예래동 625,y
509,기원뚝배기,,갈치조림,33.2581663,126.4022796,2018-06-27,2018-06-27,제주특별자치도 서귀포시 예래동 306,y
513,제주성안교회,제주특별자치도 제주시 중앙로 470 제주성안교회,교회,33.4810768,126.5415523,2018-06-27,2018-06-27,제주특별자치도 제주시 아라동 2349-1,y
517,제주국제공항,제주특별자치도 제주시 공항로 2,도착,33.5067154,126.4929745,2018-06-28,2018-06-28,제주특별자치도 제주시 용담2동 2002,y
521,제주광해 애월점,제주특별자치도 제주시 애월해안로 867,",",33.4877009,126.3903816,2018-06-28,2018-06-28,제주특별자치도 제주시 애월읍 하귀2리 2740-8,y
519,성판악 입구,제주특별자치도 제주시 516로 1865,등산 시작,33.3848367,126.6198912,2018-06-28,2018-06-28,제주특별자치도 제주시 조천읍 교래리 산137-24,y
520,제주,제주특별자치도 제주시 공항로 2,ㅇㅇ,33.5087883,126.4950176,2018-06-28,2018-06-28,제주특별자치도 제주시 용담2동 2002,y
552,제주항,,ㄱㄱ,33.5246199,126.5379908,2018-07-01,2018-07-01,제주특별자치도 제주시 건입동,y
553,일성 리조트,,숙소,33.4336535,126.7379624,2018-07-01,2018-07-01,제주특별자치도 제주시 구좌읍 송당리 2635-11,y
554,제주공항-롯데렌터카,,차량픽업,33.5034997,126.4906002,2018-07-01,2018-07-01,제주특별자치도 제주시 도두동 32,y
555,켄싱턴 리조트 서귀포,,숙소,33.2327276,126.4890002,2018-07-02,2018-07-02,제주특별자치도 서귀포시 대천동 5647,y
558,바다요,제주특별자치도 제주시 해맞이해안로 9,바다바다,33.5565443,126.7598986,2018-07-02,2018-07-02,제주특별자치도 제주시 구좌읍 김녕리 497-4,y
559,김녕미로,제주특별자치도 제주시 해맞이해안로 9,미로다 미로,33.5315306,126.7761368,2018-07-02,2018-07-02,제주특별자치도 제주시 구좌읍 월정리 산35-28,y
564,제이힐호텔,제주특별자치도 서귀포시 천제연로188번길 11,3번 장소,33.2507189,126.4247003,2018-07-03,2018-07-03,제주특별자치도 서귀포시 중문동 2050-1,y
566,제주공항,제주특별자치도 제주시 공항로 2,16:00 울산출발17:10 제주도착,33.506749,126.4926727,2018-07-03,2018-07-03,제주특별자치도 제주시 용담2동 2002,y
569,금오름,,일몰,33.3545562,126.305862,2018-07-03,2018-07-03,제주특별자치도 제주시 한림읍 금악리 산1-1,y
577,구이사이 (점심),제주특별자치도 제주시 신엄9길 6,점심,33.4724795,126.3684359,2018-07-04,2018-07-04,제주특별자치도 제주시 애월읍 신엄리 1252-5,y
578,대평올레펜션,제주특별자치도 제주시 신엄9길 6,펜션,33.2378077,126.3620815,2018-07-04,2018-07-04,제주특별자치도 서귀포시 안덕면 창천리 915,y
576,아이미제주비치호텔,제주특별자치도 제주시 조함해안로 474 제주비치,아이미제주비치호텔,33.5434602,126.6633946,2018-07-04,2018-07-04,제주특별자치도 제주시 조천읍 함덕리 1010,y
583,이시돌목장,,ㅇ,33.3480887,126.3277587,2018-07-04,2018-07-04,제주특별자치도 제주시 한림읍 금악리 151-3,y
580,ㅇ,제주특별자치도 제주시 해안마을길 76 해안초등학교,ㅇ,33.4583843,126.4626684,2018-07-04,2018-07-04,제주특별자치도 제주시 노형동 670-5,y
582,어영공원,제주특별자치도 서귀포시 1100로 731-32 푸른목장,공원,33.5173356,126.4862675,2018-07-04,2018-07-04,제주특별자치도 제주시 용담2동 2396-16,y
590,배수경갈치요리전문점,제주특별자치도 서귀포시 일주서로 993,갈치요리,33.258344,126.4045709,2018-07-05,2018-07-05,제주특별자치도 서귀포시 예래동 2088-1,y
592,아이미제주비치호텔,제주특별자치도 제주시 조함해안로 474 제주비치,숙소,33.543277,126.6634385,2018-07-05,2018-07-05,제주특별자치도 제주시 조천읍 함덕리 1011,y
603,R&T호텔,제주특별자치도 제주시 중앙로14길 30-1,숙박,33.5111769,126.52116,2018-07-05,2018-07-05,제주특별자치도 제주시 삼도2동 914,y
598,숙소,제주특별자치도 서귀포시 중산간동로 4821 해양경비안전서제주수련원,제주해양경찰청 수련원,33.3766721,126.7912304,2018-07-05,2018-07-05,제주특별자치도 서귀포시 표선면 성읍리 1332-2,y
601,서광뼈국수,제주특별자치도 서귀포시 중산간서로 1882,밥,33.2891804,126.3218994,2018-07-05,2018-07-05,제주특별자치도 서귀포시 안덕면 서광리 716-1,y
604,아쿠아비치호텔,제주특별자치도 서귀포시 일주동로 4258 아쿠아비치호텔,12,33.4482778,126.9118983,2018-07-05,2018-07-05,제주특별자치도 서귀포시 성산읍 고성리 1090-16,y
456,제주 공항,제주특별자치도 제주시 신성마을길 43,공항,33.4967527,126.4913951,2018-06-25,2018-06-25,제주특별자치도 제주시 용담2동 1829-1,y
468,n109,제주특별자치도 제주시 김녕로 307,2일차 숙소,33.551806,126.7693621,2018-06-25,2018-06-25,제주특별자치도 제주시 구좌읍 김녕리 109-1,y
461,제주공항 도착,,"도착, 렌트카 인수",33.5014387,126.4926911,2018-06-25,2018-06-25,제주특별자치도 제주시 용담2동 1940-1,y
462,항몽유적지,,수국,33.4510217,126.4078895,2018-06-25,2018-06-25,제주특별자치도 제주시 애월읍 상귀리 981-2,y
472,비자림,,숲,33.4834598,126.806655,2018-06-26,2018-06-26,제주특별자치도 제주시 구좌읍 평대리 산15,y
474,숙소,제주특별자치도 제주시 해맞이해안로 1590-6,숙소,33.5280481,126.8739049,2018-06-26,2018-06-26,제주특별자치도 제주시 구좌읍 하도리 2999-1,y
475,제주돼지,제주특별자치도 제주시 세평항로 46-8,대지곡이,33.5266808,126.8558791,2018-06-26,2018-06-26,제주특별자치도 제주시 구좌읍 세화리 3643-2,y
476,미풍해장국,제주특별자치도 서귀포시 일출로 240,해장국,33.4604298,126.9316471,2018-06-26,2018-06-26,제주특별자치도 서귀포시 성산읍 성산리 399-24,y
477,성산일출봉,제주특별자치도 서귀포시 일출로 240,산,33.4586892,126.9413959,2018-06-26,2018-06-26,제주특별자치도 서귀포시 성산읍 성산리 1,y
478,섭지코지,제주특별자치도 서귀포시 섭지코지로 107 휘닉스아일랜드콘도,바위,33.4255949,126.93085,2018-06-26,2018-06-26,제주특별자치도 서귀포시 성산읍 고성리 87,y
479,플레이스인제주,제주특별자치도 서귀포시 동류암로 20,"우육탕면,딤섬",33.4498856,126.9186604,2018-06-26,2018-06-26,제주특별자치도 서귀포시 성산읍 고성리 297-1,y
480,천지연폭포,제주특별자치도 서귀포시 동류암로 20,폭포,33.2438047,126.5554456,2018-06-26,2018-06-26,제주특별자치도 서귀포시 천지동 644-5,y
484,농협수련원,제주특별자치도 서귀포시 세화로26번길 11,제주,33.3107302,126.7855864,2018-06-26,2018-06-26,제주특별자치도 서귀포시 표선면 토산리 328-1,y
485,정방폭포,제주특별자치도 서귀포시 평화로 767 산바다ATV,폭포,33.2444249,126.5730788,2018-06-26,2018-06-26,제주특별자치도 서귀포시 정방동,y
488,김만복김밥(서귀포점),,김밥집,33.233503,126.5063977,2018-06-26,2018-06-26,제주특별자치도 서귀포시 대천동 599-1,y
489,저지리예술인마을,제주특별자치도 서귀포시 평화로 767 산바다ATV,마을,33.3400641,126.2675782,2018-06-26,2018-06-26,제주특별자치도 제주시 한림읍 월림리 115-79,y
530,제주 아비앙또,제주특별자치도 서귀포시 일주동로4120번길 130-42,숙소,33.4578642,126.9002072,2018-06-29,2018-06-29,제주특별자치도 서귀포시 성산읍 오조리 1611-2,y
531,성이시돌 목장 비육사,제주특별자치도 제주시 광산로 836,왕따나무,33.3521222,126.345153,2018-06-29,2018-06-29,제주특별자치도 제주시 한림읍 금악리 산30,y
570,피규어뮤지엄 서귀포,,피규어,33.2816314,126.3553227,2018-07-03,2018-07-03,제주특별자치도 서귀포시 안덕면 상창리 1875-4,y
605,동문야시장,,6시부터 야시장개장,33.5122341,126.5267013,2018-07-05,2018-07-05,제주특별자치도 제주시 일도1동 1481-8,y
606,레슬리호텔,제주특별자치도 서귀포시 위미상원북로 14,숙소 호텔,33.4814291,126.4705466,2018-07-06,2018-07-06,제주특별자치도 제주시 노형동 3766,y
607,제주 해피데이,제주특별자치도 제주시 제원길 43,숙소1,33.4861316,126.4894194,2018-07-06,2018-07-06,제주특별자치도 제주시 연동 262-16,y
609,종달리엔,제주특별자치도 제주시 종달로3길 22-36,음식점,33.4938284,126.8995065,2018-07-06,2018-07-06,제주특별자치도 제주시 구좌읍 종달리 887,y
611,마꼬또,제주특별자치도 제주시 광성로 277,딱새우맛집,33.4923465,126.4350889,2018-07-06,2018-07-06,제주특별자치도 제주시 외도동 252-1,y
613,요시노스시,제주특별자치도 제주시 고성남길 17,스시,33.4354128,126.4255925,2018-07-06,2018-07-06,제주특별자치도 제주시 애월읍 고성리 133,y
615,학림,제주특별자치도 제주시 서광로 254,말고기,33.499565,126.5236038,2018-07-06,2018-07-06,제주특별자치도 제주시 삼도1동 580-31,y
616,동진식당,제주특별자치도 제주시 서광로 254,꿩고기,33.5117306,126.5251683,2018-07-06,2018-07-06,제주특별자치도 제주시 이도1동 1932-42,y
617,슬로우 트립,제주특별자치도 서귀포시 오조로80번길 47,게스트하우스,33.4612227,126.9140952,2018-07-06,2018-07-06,제주특별자치도 서귀포시 성산읍 오조리 2210,y
620,한국 SGI 제주한일우호연수원,제주특별자치도 서귀포시 남성로128번길 24,숙소,33.2406451,126.5563615,2018-07-07,2018-07-07,제주특별자치도 서귀포시 천지동 731-3,y
621,김녕리수국길,,수국길,33.5510747,126.7522326,2018-07-07,2018-07-07,제주특별자치도 제주시 구좌읍 김녕리 1771-1,y
622,애월더선셋(카페),제주특별자치도 제주시 김녕로14길 41 김녕교회,카페,33.4574336,126.3089261,2018-07-07,2018-07-07,제주특별자치도 제주시 애월읍 곽지리 1369-2,y
623,몽상드애월(카페),제주특별자치도 제주시 김녕로14길 41 김녕교회,카페,33.4627502,126.3091009,2018-07-07,2018-07-07,제주특별자치도 제주시 애월읍 애월리 2542-1,y
624,카멜리아힐,제주특별자치도 서귀포시 병악로 166,수국,33.2895128,126.3706944,2018-07-07,2018-07-07,제주특별자치도 서귀포시 안덕면 상창리 271,y
728,도두해수파크,제주특별자치도 제주시 서해안로 236 도두해수파크,찜질방,33.5085189,126.4713617,2018-07-12,2018-07-12,제주특별자치도 제주시 도두동 1729,y
731,용머리해안,제주특별자치도 제주시 금악동길 35,용머리해안,33.2302258,126.3151329,2018-07-12,2018-07-12,제주특별자치도 서귀포시 안덕면 상창리 280,y
733,서귀포시청,제주특별자치도 제주시 금악동길 35,서귀포시청,33.2527917,126.5599872,2018-07-12,2018-07-12,제주특별자치도 서귀포시 천지동 301-12,y
737,쇠소깍,제주특별자치도 서귀포시 일주동로 8687 서귀포농협중앙지점,쇠소깍,33.2507657,126.6252409,2018-07-12,2018-07-12,대한민국,y
739,이마트,제주특별자치도 서귀포시 일주동로 9209 이마트서귀포점,이마트,33.2485033,126.5093885,2018-07-12,2018-07-12,제주특별자치도 서귀포시 대륜동 841-2,y
741,일출랜드,제주특별자치도 서귀포시 일주동로 9209 이마트서귀포점,일출랜드,33.3830828,126.8432041,2018-07-12,2018-07-12,제주특별자치도 서귀포시 성산읍 삼달리 1009,y
742,섭지코지,제주특별자치도 서귀포시 일주동로 9209 이마트서귀포점,섭지코지,33.4125604,126.9349287,2018-07-12,2018-07-12,대한민국,y
746,용두암,제주특별자치도 제주시 서해안로 687-6,용두암,33.5156559,126.5119341,2018-07-12,2018-07-12,제주특별자치도 제주시 용담2동 488,y
758,조아렌터카,제주특별자치도 제주시 오일장서길 63,렌터카,33.4971153,126.4719771,2018-07-12,2018-07-12,제주특별자치도 제주시 도두동 2246-1,y
748,항몽유적지,,고려시대 삼별초,33.4496958,126.4080783,2018-07-12,2018-07-12,제주특별자치도 제주시 애월읍 상귀리 991,y
754,호텔시리우스,제주특별자치도 제주시 도령로 133,숙소,33.4933793,126.4912331,2018-07-12,2018-07-12,제주특별자치도 제주시 연동 2334-4,y
757,조아렌터카,제주특별자치도 제주시 오일장서길 63,렌터카,33.4971153,126.4719771,2018-07-12,2018-07-12,제주특별자치도 제주시 도두동 2246-1,y
760,제주공항(11:50분도착),제주특별자치도 제주시 공항로 2,도착,33.5069689,126.4928332,2018-07-12,2018-07-12,제주특별자치도 제주시 용담2동 2002,y
761,협재해수욕장,,바다,33.3943019,126.2398925,2018-07-12,2018-07-12,제주특별자치도 제주시 한림읍 협재리 2034-2,y
766,천지연크리스탈호텔,제주특별자치도 서귀포시 솔동산로 40 천지연호텔,숙박,33.2418787,126.562436,2018-07-13,2018-07-13,제주특별자치도 서귀포시 송산동 654-5,y
767,제주 조각 공원,제주특별자치도 서귀포시 일주서로 1836,"조각공원이다.,",33.2529164,126.322589,2018-07-13,2018-07-13,제주특별자치도 서귀포시 안덕면 덕수리 산27,y
769,엠제이 호텔,제주특별자치도 제주시 신광로4길 16 MJ호스텔,ㅇ,33.4889741,126.4884545,2018-07-13,2018-07-13,제주특별자치도 제주시 연동 261-67,y
783,고래의꿈,제주특별자치도 서귀포시 표선동서로 35-42,숙소,33.3900255,126.8756099,2018-07-13,2018-07-13,제주특별자치도 서귀포시 성산읍 신산리 869-8,y
787,세계로식자재마트,제주특별자치도 제주시 금악동2길 25,바베큐 장보기,33.4921779,126.4738131,2018-07-13,2018-07-13,제주특별자치도 제주시 노형동 1236-7,y
778,복자씨연탄구이,제주특별자치도 제주시 오라로 41,ㅊ,33.4693648,126.9197915,2018-07-13,2018-07-13,제주특별자치도 서귀포시 성산읍 오조리 368,y
776,함쉐프키친,제주특별자치도 서귀포시 대포중앙로 118,패밀리레스토랑,33.2408895,126.4312038,2018-07-13,2018-07-13,제주특별자치도 서귀포시 중문동 1893,y
799,예그리나 펜션,제주특별자치도 제주시 곽지9길 45,숙소,33.449562,126.3057621,2018-07-15,2018-07-15,제주특별자치도 제주시 애월읍 곽지리 1622-47,y
800,할리데이 카라반,제주특별자치도 제주시 곽지9길 45,숙소,33.3103415,126.279527,2018-07-15,2018-07-15,제주특별자치도 제주시 한경면 저지리 산38-30,y
801,대포주상절리,,주상절리,33.2391137,126.427018,2018-07-15,2018-07-15,제주특별자치도 서귀포시 중문동 2755,y
805,제주공항,제주특별자치도 제주시 공항로 2,공항,33.506395,126.4919421,2018-07-15,2018-07-15,제주특별자치도 제주시 용담2동 2002,y
826,제주 절물자연휴양림,제주특별자치도 제주시 명림로 584 절물휴양림,"휴양림이용 : 연중무휴 일일개장(입장)시간 : 당일 07:00 ~ 18:00 일반 - 1,000원주차료 - 중,소형 : 2,000원 (1대/1일)",33.4265791,126.6278385,2018-07-17,2018-07-17,제주특별자치도 제주시 봉개동 산78-1,y
804,이호테 해수욕장,제주특별자치도 제주시 애월해안로 923,ㅇ,33.497166,126.452817,2018-07-15,2018-07-15,제주특별자치도 제주시 이호동 1665-9,y
823,오설록 티뮤지엄,,녹차밭과 녹차카페매일 09:00 - 19:002018년5월1일~8/31매일 09:00 - 18:00연중무휴,33.3039499,126.2901153,2018-07-17,2018-07-17,제주특별자치도 서귀포시 안덕면 서광리 산50-12,y
835,오렌지 호텔,제주특별자치도 서귀포시 태평로335번길 3,오렌지 호텔,33.2471658,126.5573878,2018-07-18,2018-07-18,제주특별자치도 서귀포시 천지동 317-7,y
837,제주공항,제주특별자치도 제주시 공항로 2,19:20분 도착,33.5068287,126.4927148,2018-07-18,2018-07-18,제주특별자치도 제주시 용담2동 2002,y
838,베스트웨스턴 제주호텔,제주특별자치도 제주시 도령로 27 네이버후드,1일차 숙소,33.48782,126.4818913,2018-07-18,2018-07-18,제주특별자치도 제주시 노형동 1295-16,y
839,제주공항,제주특별자치도 제주시 공항로 2,제주공항도착,33.5064799,126.4928481,2018-07-18,2018-07-18,제주특별자치도 제주시 용담2동 2002,y
874,제주국제공항,제주특별자치도 제주시 공항로 2,김포→제주,33.5069759,126.4928209,2018-07-21,2018-07-21,제주특별자치도 제주시 용담2동 2002,y
879,도민상회_본점,제주특별자치도 제주시 한림로3길 8,제주흑돼지맛집,33.4131879,126.2601049,2018-07-22,2018-07-22,제주특별자치도 제주시 한림읍 한림리 1597,y
880,협재 칼국수,,제주 제주시 한림읍 협재로 3,33.4109633,126.2721786,2018-07-22,2018-07-22,제주특별자치도 제주시 한림읍 한림리 724,y
881,담모라 리조트,제주특별자치도 서귀포시 일주서로 1975-16,숙소,33.2496054,126.3052412,2018-07-22,2018-07-22,제주특별자치도 서귀포시 안덕면 사계리 745,y
884,제주항,제주특별자치도 제주시 임항로 97,도착지,33.5225517,126.5367146,2018-07-22,2018-07-22,제주특별자치도 제주시 건입동 918-25,y
885,렌트지점,제주특별자치도 제주시 다호동길 49,완둥이 운전해,33.5032794,126.4950933,2018-07-22,2018-07-22,제주특별자치도 제주시 용담2동 1963-5,y
886,렌츠런팜,제주특별자치도 제주시 남조로 1649-48,1,33.4111486,126.6794396,2018-07-22,2018-07-22,제주특별자치도 제주시 조천읍 교래리 산70-10,y
911,올래국수,제주특별자치도 제주시 신대로 63,고기국수,33.4915417,126.4969823,2018-07-24,2018-07-24,제주특별자치도 제주시 연동 301-10,y
889,제주국제공항,제주특별자치도 제주시 공항로 2,공항도착,33.5069246,126.4929755,2018-07-22,2018-07-22,제주특별자치도 제주시 용담2동 2002,y
910,제주국제공항,제주특별자치도 제주시 공항로 2,16:50 도착,33.5062468,126.493023,2018-07-24,2018-07-24,제주특별자치도 제주시 용담2동 1462-1,y
912,12,,12,33.4164307,126.294064,2018-07-24,2018-07-24,제주특별자치도 제주시 한림읍 상대리 3040,y
914,제주항,,목포-제주,33.523775,126.5335572,2018-07-24,2018-07-24,제주특별자치도 제주시 건입동,y
926,제주국제공항,,공항,33.5058864,126.4930702,2018-07-26,2018-07-26,제주특별자치도 제주시 용담2동 1984-5,y
920,제주현대랜트카,제주특별자치도 제주시 어영길 26,7/30 8:00 ~8/01 8:30,33.5181178,126.495838,2018-07-25,2018-07-25,제주특별자치도 제주시 용담2동 1181-1,y
925,재연식당,제주특별자치도 제주시 세화1길 20-30,제주 제주시 구좌읍 세화1길 20-30,33.5264833,126.8560348,2018-07-26,2018-07-26,제주특별자치도 제주시 구좌읍 세화리 3644-3,y
927,헬스케어타운,제주특별자치도 서귀포시 솔오름로 28,숙소,33.2841368,126.5571844,2018-07-26,2018-07-26,제주특별자치도 서귀포시 동홍동 2045,y
928,어마장장(해물뚝배기),제주특별자치도 제주시 성지로 62,식당,33.5110587,126.529854,2018-07-26,2018-07-26,제주특별자치도 제주시 일도2동 1028-49,y
930,제주공항,제주특별자치도 제주시 공항로 2,드뎌 제주도~~,33.5071978,126.4928397,2018-07-27,2018-07-27,제주특별자치도 제주시 용담2동 2002,y
936,밥깡패,제주특별자치도 제주시 한림로4길 35,해녀파스타 맛집,33.4101051,126.263434,2018-07-28,2018-07-28,제주특별자치도 제주시 한림읍 한림리 1534-6,y
937,난드르커피,제주특별자치도 제주시 한림로4길 35,이쁜카페,33.2565317,126.3108355,2018-07-28,2018-07-28,제주특별자치도 서귀포시 안덕면 덕수리 970,y
942,(주)가자jeju렌트카,제주특별자치도 제주시 억삼길 10,뉴AV,33.4925547,126.4675512,2018-07-30,2018-07-30,제주특별자치도 제주시 이호동 168,y
943,청진동뚝배기,제주특별자치도 서귀포시 일출로 275 청진동뚝배기,중식,33.4624144,126.9342289,2018-07-30,2018-07-30,제주특별자치도 서귀포시 성산읍 성산리 158-4,y
945,더베스트 성산,제주특별자치도 서귀포시 동류암로 28,호텔,33.4497241,126.9170336,2018-07-30,2018-07-30,제주특별자치도 서귀포시 성산읍 고성리 298-17,y
946,R&T 호텔,제주특별자치도 제주시 중앙로 110,호텔,33.508472,126.523701,2018-07-30,2018-07-30,제주특별자치도 제주시 삼도2동 216,y
947,제주김만복 서귀포점,제주특별자치도 서귀포시 월드컵로 193,김밥집,33.2324978,126.506226,2018-07-30,2018-07-30,제주특별자치도 서귀포시 대천동 707-2,y
949,이마트,제주특별자치도 제주시 탑동로 38 이마트,장보기,33.5179923,126.5208914,2018-07-30,2018-07-30,제주특별자치도 제주시 삼도2동 1259-1,y
952,앤트러사이트,제주특별자치도 제주시 한림로 564,카페,33.4076528,126.2582504,2018-07-31,2018-07-31,제주특별자치도 제주시 한림읍 동명리 1715,y
955,청년어부,제주특별자치도 서귀포시 섭지코지로25번길 34,"랍스타, 딱새우",33.441967,126.9196524,2018-07-31,2018-07-31,제주특별자치도 서귀포시 성산읍 고성리 443-1,y
958,제주공항,제주특별자치도 제주시 공항로 2,공항,33.5068767,126.4928433,2018-07-31,2018-07-31,제주특별자치도 제주시 용담2동 2002,y
962,서경농수산,제주특별자치도 서귀포시 일출로 31,청귤3B,33.4404502,126.879291,2018-08-01,2018-08-01,제주특별자치도 서귀포시 성산읍 고성리 329-1,y
735,황우지해변,제주특별자치도 서귀포시 일주동로 8687 서귀포농협중앙지점,황우지해변,33.2413147,126.5505178,2018-07-12,2018-07-12,제주특별자치도 서귀포시 천지동,y
743,섭지코지,제주특별자치도 서귀포시 일주동로 9209 이마트서귀포점,섭지코지,33.4205583,126.9321896,2018-07-12,2018-07-12,대한민국,y
790,자매국수,,3대천왕 나온집,33.5080165,126.5323103,2018-07-14,2018-07-14,제주특별자치도 제주시 일도2동 1050-1,y
791,꽃이다 카페,제주특별자치도 서귀포시 서호로 70,고양이와 꽃이함께하는카페주소:제주특별자치도 서귀포시 서호로 지번 제주특별자치도 서귀포시 서호동 615am 11:30 ~ pm 08:30(매주화요일 휴무)http://www.instagram.com/theflower_jeju/http://www.instagram.com/cafe_theflower/,33.2599621,126.5227606,2018-07-14,2018-07-14,제주특별자치도 서귀포시 대륜동 615,y
794,전망좋은집,제주특별자치도 서귀포시 성산중앙로 25,전망이좋은횟집,33.4603226,126.9324864,2018-07-14,2018-07-14,제주특별자치도 서귀포시 성산읍 성산리 170-1,y
798,제주SHOW무인텔,제주특별자치도 제주시 평화로 2500,숙소,33.4324095,126.4197508,2018-07-15,2018-07-15,제주특별자치도 제주시 애월읍 고성리 884-2,y
796,제주국제공항,,공항,33.5064946,126.4933285,2018-07-15,2018-07-15,제주특별자치도 제주시 용담2동 1462-1,y
797,제주THE렌트카,제주특별자치도 제주시 제성1길 62,전기차,33.4982898,126.480517,2018-07-15,2018-07-15,제주특별자치도 제주시 도두동 1115-1,y
808,용두암,,..,33.5156787,126.5122087,2018-07-15,2018-07-15,제주특별자치도 제주시 용담2동 487-4,y
809,이호테해수욕장,,..,33.4973845,126.4524126,2018-07-15,2018-07-15,제주특별자치도 제주시 이호동,y
810,저녁 식사,제주특별자치도 제주시 신대로 101,ㅇㅇㅇ,33.4883387,126.4969385,2018-07-15,2018-07-15,제주특별자치도 제주시 연동 302-6,y
833,메이저호텔2,제주특별자치도 제주시 은남4길 40,모텔,33.4865322,126.4915395,2018-07-18,2018-07-18,제주특별자치도 제주시 연동 273-54,y
858,빌리카,제주특별자치도 제주시 용문로 48,렌트카,33.5041966,126.5014735,2018-07-20,2018-07-20,제주특별자치도 제주시 용담2동 731,y
856,동문시장,,저녁 식사 및 간식,33.5122405,126.5267162,2018-07-19,2018-07-19,제주특별자치도 제주시 일도1동 1481-7,y
860,제주항,제주특별자치도 제주시 임항로 154 제주해양경찰서,7일 2시도착,33.5249227,126.544148,2018-07-20,2018-07-20,제주특별자치도 제주시 건입동 908-1,y
865,천백고지 휴게소,제주특별자치도 서귀포시 1100로 1555 1100고지 휴게소,없음,33.3576918,126.4624846,2018-07-20,2018-07-20,제주특별자치도 서귀포시 예래동 산1-3,y
863,엉클통김밥 서귀포점,제주특별자치도 서귀포시 동홍로 20 돌하루방식품,엉클통김밥 서귀포점,33.2503262,126.5680304,2018-07-20,2018-07-20,제주특별자치도 서귀포시 중앙동 250-19,y
866,착한전복,제주특별자치도 서귀포시 천제연로 119,제주도 서귀포시 천제연로 119(색달동 2481-10),33.2546363,126.4182787,2018-07-20,2018-07-20,제주특별자치도 서귀포시 예래동 2481-10,y
867,아길라 호텔,제주특별자치도 제주시 옹포4길 20 주암썬빌리지,아길라 호텔,33.4000319,126.2506567,2018-07-20,2018-07-20,제주특별자치도 제주시 한림읍 옹포리 655,y
895,제주공항,제주특별자치도 제주시 연사길 106-5,8:35 도착,33.504692,126.4953664,2018-07-23,2018-07-23,제주특별자치도 제주시 용담2동 1462-2,y
898,제주항,제주특별자치도 제주시 임항로 97,배를 이용한 제주여행의 시작과 끝,33.5194269,126.533217,2018-07-23,2018-07-23,제주특별자치도 제주시 건입동 918-25,y
900,제주 가가멜,제주특별자치도 서귀포시 문부로 8,수제 카라멜,33.2519022,126.5686323,2018-07-23,2018-07-23,제주특별자치도 서귀포시 동홍동 430-2,y
902,퓨리티인제주,제주특별자치도 서귀포시 서성일로 314,기념품샵,33.4091905,126.8252794,2018-07-23,2018-07-23,제주특별자치도 서귀포시 성산읍 난산리 2958-5,y
903,제주공항,,제주공항,33.5008839,126.4954535,2018-07-23,2018-07-23,제주특별자치도 제주시 용담2동 1698,y
917,제주공항,,공항 도착,33.5049573,126.4966467,2018-07-25,2018-07-25,제주특별자치도 제주시 용담2동 1588-6,y
922,살롱드라방,제주특별자치도 제주시 애월로11길 23,제주도 제주시 애월읍 하가리 1415,33.4594173,126.3510868,2018-07-26,2018-07-26,제주특별자치도 제주시 애월읍 하가리 1087-3,y
923,복도새기,제주특별자치도 제주시 애월로11길 23,제주 제주시 애월읍 신엄리 1231-1,33.4728352,126.3708239,2018-07-26,2018-07-26,제주특별자치도 제주시 애월읍 신엄리 1231-6,y
924,섭지코지로,제주특별자치도 서귀포시 섭지코지로 43,딱새우회,33.4383926,126.9214136,2018-07-26,2018-07-26,제주특별자치도 서귀포시 성산읍 고성리 224-14,y
929,오스테리아일디토(레스토랑),제주특별자치도 서귀포시 동류암로 20,1,33.4499307,126.9183938,2018-07-27,2018-07-27,제주특별자치도 서귀포시 성산읍 고성리 297-1,y
932,숙소,,바뀔거임,33.4505478,126.3567969,2018-07-27,2018-07-27,제주특별자치도 제주시 애월읍 하가리 639-5,y
934,자매국수,제주특별자치도 제주시 삼성로 67,점심,33.5080362,126.5323402,2018-07-27,2018-07-27,제주특별자치도 제주시 일도2동 1050-1,y
729,성이시돌목장,제주특별자치도 제주시 금악동길 35,돌목장,33.3469206,126.3271954,2018-07-12,2018-07-12,제주특별자치도 제주시 한림읍 금악리 124,y
730,카멜리아힐,제주특별자치도 제주시 금악동길 35,카멜리아힐,33.2869118,126.3710304,2018-07-12,2018-07-12,제주특별자치도 서귀포시 안덕면 상창리 280,y
732,외돌개,제주특별자치도 제주시 금악동길 35,외돌개 ,33.2381776,126.5454607,2018-07-12,2018-07-12,제주특별자치도 서귀포시 천지동,y
734,새섬,제주특별자치도 제주시 금악동길 35,새섬,33.2358815,126.5625604,2018-07-12,2018-07-12,제주특별자치도 서귀포시 송산동 산1,y
736,정방폭포,제주특별자치도 서귀포시 일주동로 8687 서귀포농협중앙지점,정방폭포,33.2443981,126.5717089,2018-07-12,2018-07-12,제주특별자치도 서귀포시 송산동,y
738,에코랜드,제주특별자치도 제주시 남조로 1982,에코랜드,33.4459788,126.6723635,2018-07-12,2018-07-12,제주특별자치도 제주시 조천읍 교래리 385-1,y
740,씨앤힐스파펜션,제주특별자치도 서귀포시 일주동로 9209 이마트서귀포점,씨앤힐스파펜션,33.4728245,126.3523654,2018-07-12,2018-07-12,제주특별자치도 제주시 애월읍 고내리 73-1,y
744,광치기해변,제주특별자치도 서귀포시 일주동로 9209 이마트서귀포점,광치기해변,33.4518141,126.924167,2018-07-12,2018-07-12,대한민국,y
745,성산일출봉,제주특별자치도 서귀포시 일주동로 9209 이마트서귀포점,성산일출봉,33.4575419,126.939835,2018-07-12,2018-07-12,제주특별자치도 서귀포시 성산읍 성산리 78,y
749,새별오름,,새별오름,33.365712,126.3586103,2018-07-12,2018-07-12,제주특별자치도 제주시 애월읍 봉성리 산59-8,y
755,큰엉해안경승지,제주특별자치도 서귀포시 태위로 536,큰엉해안경승지한반도 지형,33.2742896,126.7053743,2018-07-12,2018-07-12,제주특별자치도 서귀포시 남원읍 남원리 1408,y
751,대포주상절리,제주특별자치도 서귀포시 중문상로17번길 52-17,대포주상절리,33.2376837,126.4250258,2018-07-12,2018-07-12,제주특별자치도 서귀포시 중문동,y
752,천제연폭포,제주특별자치도 서귀포시 중문관광로 192,"1,2코스 필수3코스 선택",33.2513764,126.4172796,2018-07-12,2018-07-12,제주특별자치도 서귀포시 중문동 2785-2,y
753,동문재래시장,제주특별자치도 제주시 중앙로13길 21 중앙주택,야시장- 딱새우(8시전),33.512131,126.5267022,2018-07-12,2018-07-12,제주특별자치도 제주시 일도1동 1481-8,y
756,제주국제공항,,장소,33.5052143,126.4938053,2018-07-12,2018-07-12,제주특별자치도 제주시 용담2동 1462,y
762,함덕해수욕장 인근 관사,제주특별자치도 제주시 조함해안로 525,ㅇㅇㅇ,33.5429306,126.6696255,2018-07-12,2018-07-12,제주특별자치도 제주시 조천읍 함덕리 산14-1,y
763,오셜록 뮤지엄,,뮤지엄,33.3054906,126.2909262,2018-07-13,2018-07-13,제주특별자치도 서귀포시 안덕면 서광리 1224-44,y
764,조각공원,제주특별자치도 서귀포시 일주서로 1836,조각조각,33.2535377,126.3229574,2018-07-13,2018-07-13,제주특별자치도 서귀포시 안덕면 덕수리 산27,y
765,유채꽃프라자,제주특별자치도 서귀포시 녹산로 464-78 가시리풍력발전단지,풍차와 의자,33.3931708,126.7317049,2018-07-13,2018-07-13,제주특별자치도 서귀포시 표선면 가시리 산68-3,y
773,귤,제주특별자치도 서귀포시 돈내코로 114 돈내코관리사무소,귤,33.2667197,126.608106,2018-07-13,2018-07-13,제주특별자치도 서귀포시 효돈동 1188-13,y
774,자매국수,제주특별자치도 제주시 월랑로4길 6,ㅇ,33.487722,126.4783467,2018-07-13,2018-07-13,제주특별자치도 제주시 노형동 1279-1,y
777,제주 김만복,제주특별자치도 제주시 오라로 41,ㅇ,33.4970331,126.5089199,2018-07-13,2018-07-13,제주특별자치도 제주시 오라동 2250-1,y
779,한라국수,제주특별자치도 서귀포시 천제연로208번길 19,ㅇ,33.24991,126.4268012,2018-07-13,2018-07-13,제주특별자치도 서귀포시 중문동 2036-3,y
780,금오름,,패러글라이딩,33.3533285,126.3074168,2018-07-13,2018-07-13,제주특별자치도 제주시 한림읍 금악리 산1-1,y
782,아띠애 펜션,제주특별자치도 서귀포시 표선동서로 35-42,숙소,33.3132555,126.8192506,2018-07-13,2018-07-13,제주특별자치도 서귀포시 표선면 표선리 2265-17,y
784,연안 여객,제주특별자치도 서귀포시 중앙로41번길 12,마지막이다,33.5202055,126.5357309,2018-07-13,2018-07-13,제주특별자치도 제주시 건입동,y
785,성이시돌목장,제주특별자치도 제주시 금악동2길 25,성이시돌목장은 청정제주에서 유기농우유와 무항생제 소고기를 생산,33.3418183,126.3257908,2018-07-13,2018-07-13,제주특별자치도 제주시 한림읍 금악리 77-1,y
786,요리요,제주특별자치도 제주시 금악동2길 25,제주갈치의 맛,33.3112402,126.3400827,2018-07-13,2018-07-13,제주특별자치도 서귀포시 안덕면 동광리 940-1,y
792,공항,제주특별자치도 제주시 다호길 103,ㄱㅇ,33.5014423,126.4924154,2018-07-14,2018-07-14,제주특별자치도 제주시 용담2동 1935-1,y
807,제주항 ,,제주 도착,33.5259396,126.5437516,2018-07-15,2018-07-15,제주특별자치도 제주시 건입동 908-18,y
817,제주도 도착,,제주국제공항,33.506195,126.4933035,2018-07-16,2018-07-16,제주특별자치도 제주시 용담2동 2002-7,y
818,차 렌트,제주특별자치도 제주시 용담로 124,다오라 렌트,33.5097353,126.5146556,2018-07-16,2018-07-16,제주특별자치도 제주시 용담1동 231-7,y
820,제주도착,,"공항도착, 렌트카 픽업",33.492204,126.4927981,2018-07-16,2018-07-16,제주특별자치도 제주시 연동 280,y
793,제주국제공항,제주특별자치도 제주시 다호동길 49,공항,33.4983868,126.4871643,2018-07-14,2018-07-14,제주특별자치도 제주시 도두동 292,y
918,알루하우스,제주특별자치도 서귀포시 고성중앙로 61 태성주택,서귀포시 성산읍 혼인지로37번길 23-9,33.4119407,126.899176,2018-07-25,2018-07-25,제주특별자치도 서귀포시 성산읍 온평리 519-1,y
821,제주공항,,렌트가픽업,33.49913,126.4927179,2018-07-16,2018-07-16,제주특별자치도 제주시 용담2동 1883,y
827,평대해수욕장,제주특별자치도 제주시 평대5길 31-16,포장마차,33.5329787,126.8409974,2018-07-17,2018-07-17,제주특별자치도 제주시 구좌읍 평대리 1994-7,y
828,티라호텔,제주특별자치도 서귀포시 섭지코지로25번길 41,티라호텔,33.4426669,126.9184869,2018-07-17,2018-07-17,제주특별자치도 서귀포시 성산읍 고성리 437-1,y
841,이호테우말등대,,등대관광,33.4969617,126.4502459,2018-07-19,2018-07-19,제주특별자치도 제주시 이호동 1781-5,y
834,스르륵 카페,제주특별자치도 서귀포시 말질로 428,스르륵 카페,33.2322351,126.4632471,2018-07-18,2018-07-18,제주특별자치도 서귀포시 대천동 5623,y
840,아침식사,,오라 오거리정식,33.5001224,126.5077832,2018-07-19,2018-07-19,제주특별자치도 제주시 오라동 2348-9,y
842,씨스파,,마싸지,33.4780807,126.3692042,2018-07-19,2018-07-19,제주특별자치도 제주시 애월읍 신엄리 962,y
846,대기정-갈치조림,제주특별자치도 서귀포시 이어도로 41 대기정식당,저녁식사,33.240284,126.4286256,2018-07-19,2018-07-19,제주특별자치도 서귀포시 중문동 1787,y
847,엠버호텔 센트럴,제주특별자치도 서귀포시 이어도로 41 대기정식당,숙소,33.4860214,126.4817568,2018-07-19,2018-07-19,제주특별자치도 제주시 노형동 949,y
852,제주국제공항,,공항,33.4872777,126.4861041,2018-07-19,2018-07-19,제주특별자치도 제주시 연동 252-23,y
853,제주국제공항,제주특별자치도 제주시 다호북길 7,공항,33.4972142,126.4913622,2018-07-19,2018-07-19,제주특별자치도 제주시 용담2동 2580-77,y
854,용두암,,용두암,33.5155662,126.5124038,2018-07-19,2018-07-19,제주특별자치도 제주시 용담2동 487,y
855,시리우스 호텔,제주특별자치도 제주시 도령로 133,1일차 숙박 물품보관함 사용,33.4932645,126.4910774,2018-07-19,2018-07-19,제주특별자치도 제주시 연동 2334-4,y
873,논짓물,제주특별자치도 제주시 해맞이해안로 472,논짓물,33.23697,126.3893649,2018-07-20,2018-07-20,제주특별자치도 서귀포시 예래동,y
869,제주공항,제주특별자치도 제주시 공항로 2,제주도 도착 ! ,33.507228,126.4923954,2018-07-20,2018-07-20,제주특별자치도 제주시 용담2동 2002,y
872,월정리 해수욕장,제주특별자치도 제주시 해맞이해안로 472,월정리 해변,33.5550607,126.7968789,2018-07-20,2018-07-20,제주특별자치도 제주시 구좌읍 월정리 6,y
906,바램목장,제주특별자치도 서귀포시 신화역사로 611,양,33.311105,126.3525759,2018-07-23,2018-07-23,제주특별자치도 서귀포시 안덕면 동광리 259-3,y
878,라메종베니펜션,,-,33.4345188,126.9235908,2018-07-21,2018-07-21,대한민국,y
908,더클리프,제주특별자치도 서귀포시 중문관광로 154-17,ㅇ,33.2444398,126.4149466,2018-07-23,2018-07-23,제주특별자치도 서귀포시 예래동 2950-4,y
913,22,제주특별자치도 제주시 1100로 2070-510 윗세오름대피소,22,33.3610676,126.5156359,2018-07-24,2018-07-24,제주특별자치도 제주시 애월읍 광령리 산183-6,y
916,별방촌,제주특별자치도 제주시 해맞이해안로 1480,해물뚝배기 맛집,33.5251042,126.8635215,2018-07-25,2018-07-25,제주특별자치도 제주시 구좌읍 하도리 3200-14,y
919,윈스카이 호텔,제주특별자치도 서귀포시 신중남로 17,7/31~8/1 숙박장소,33.2532453,126.508511,2018-07-25,2018-07-25,제주특별자치도 서귀포시 대천동 162-1,y
921,뜰에,제주특별자치도 제주시 애월로11길 23,애월로 11길 23-1,33.4663126,126.3203793,2018-07-26,2018-07-26,제주특별자치도 제주시 애월읍 애월리 1819-30,y
931,이호테우해변,제주특별자치도 제주시 공항로 2,일몰즐기기,33.4974266,126.4524293,2018-07-27,2018-07-27,제주특별자치도 제주시 이호동,y
933,렌트카,,차,33.5034395,126.5029968,2018-07-27,2018-07-27,제주특별자치도 제주시 용담2동 744-52,y
935,원담회센터,제주특별자치도 제주시 구남로6길 44-6,저녁,33.5021414,126.5290057,2018-07-27,2018-07-27,제주특별자치도 제주시 이도1동 1257-8,y
938,꽃돼지 연탄구이,제주특별자치도 서귀포시 이어도로 227,연탄구이,33.241919,126.4439161,2018-07-29,2018-07-29,제주특별자치도 서귀포시 중문동 2239,y
939,퍼스트70,제주특별자치도 서귀포시 명동로 46 글램블루호텔,호텔,33.2470482,126.5668297,2018-07-29,2018-07-29,제주특별자치도 서귀포시 정방동 182,y
940,제주돈아,제주특별자치도 제주시 중엄3길 65,밥,33.4778553,126.369969,2018-07-29,2018-07-29,제주특별자치도 제주시 애월읍 신엄리 957,y
941,제주공항,제주특별자치도 제주시 공항로 2,출발도착,33.5069442,126.4929366,2018-07-29,2018-07-29,제주특별자치도 제주시 용담2동 2002,y
781,자매국수,제주특별자치도 제주시 삼성로 65,고기국수,33.5080278,126.5322296,2018-07-13,2018-07-13,제주특별자치도 제주시 일도2동 1034-19,y
788,일제 지하벙커,제주특별자치도 제주시 중앙로 13,.,33.2042324,126.2716055,2018-07-13,2018-07-13,제주특별자치도 서귀포시 대정읍 상모리 1670,y
883,도착,제주특별자치도 제주시 임항로 97,공주님과 여행시작,33.5225517,126.5367146,2018-07-22,2018-07-22,제주특별자치도 제주시 건입동 918-25,y
887,집나간왕새우바람난구이,제주특별자치도 제주시 광양13길 7-1,조개구이,33.4991458,126.5311683,2018-07-22,2018-07-22,제주특별자치도 제주시 이도2동 1179-11,y
944,라마다 앙코르 이스트,제주특별자치도 서귀포시 서호중로 65 라마다 앙코르 이스트 호텔,호텔,33.2543323,126.5199186,2018-07-30,2018-07-30,제주특별자치도 서귀포시 대륜동 1522-2,y
948,제주 공항,,제주도 입국,33.4938089,126.4914016,2018-07-30,2018-07-30,제주특별자치도 제주시 연동 2335-4,y
950,제주공항,,11시 30분 도착,33.5060561,126.4926376,2018-07-31,2018-07-31,제주특별자치도 제주시 용담2동 833-2,y
951,롱로드,제주특별자치도 제주시 귀덕3길 36,양식집,33.440978,126.2792428,2018-07-31,2018-07-31,제주특별자치도 제주시 한림읍 귀덕리 4073,y
953,제주국제공항,제주특별자치도 제주시 공항로 2,8/4(토) 8:10 하나/연수/민지/민진 ,33.5060952,126.4921204,2018-07-31,2018-07-31,제주특별자치도 제주시 용담2동 2002,y
954,여기가제주멍,제주특별자치도 제주시 구엄길 71,해물볶음,33.4807378,126.376195,2018-07-31,2018-07-31,제주특별자치도 제주시 애월읍 구엄리 1136-5,y
960,낚시,,낚시,33.237947,126.5593186,2018-07-31,2018-07-31,제주특별자치도 서귀포시 천지동 707-4,y
957,제주도 여객 도착,제주특별자치도 제주시 임항로 173 제5부두,제주도 여객 도착,33.5246065,126.538942,2018-07-31,2018-07-31,제주특별자치도 제주시 건입동,y
959,도원이형 집,제주특별자치도 서귀포시 태평로439번길 46,집,33.2464473,126.5622972,2018-07-31,2018-07-31,제주특별자치도 서귀포시 정방동 496-4,y
961,효섬마을초가집,,전복식당,33.4650988,126.6113545,2018-07-31,2018-07-31,제주특별자치도 제주시 봉개동,y
984,멘도롱장(17시~20시),제주특별자치도 제주시 공항로 2,제주시 조천읍 조함해안로 356,33.5489687,126.6550713,2018-08-03,2018-08-03,제주특별자치도 제주시 용담2동 2002,y
986,삼미흑돼지,제주특별자치도 서귀포시 색달중앙로 33,흑돼지,33.2585322,126.4134658,2018-08-03,2018-08-03,제주특별자치도 서귀포시 예래동 2275-1,y
985,라마다 앙코르 호텔,제주특별자치도 서귀포시 서호중로 55,첫째날 숙소,33.2544668,126.5192505,2018-08-03,2018-08-03,제주특별자치도 서귀포시 대륜동 1524-7,y
987,하모해수욕장,제주특별자치도 서귀포시 색달중앙로 33,해수욕장,33.2108904,126.2615459,2018-08-04,2018-08-04,제주특별자치도 서귀포시 예래동 2275-1,y
972,아라동,제주특별자치도 제주시 공항로 2,1,33.4935729,126.5720094,2018-08-02,2018-08-02,제주특별자치도 제주시 아라동,y
970,함덕해수욕장,제주특별자치도 제주시 다호길 106,1,33.5372474,126.6749357,2018-08-02,2018-08-02,제주특별자치도 제주시 용담2동 1940-4,y
971,함덕해수욕장,,1,33.5409666,126.6700752,2018-08-02,2018-08-02,제주특별자치도 제주시 도두동 32,y
973,제주공항,제주특별자치도 제주시 공항로 2,도작,33.5061405,126.4923783,2018-08-02,2018-08-02,제주특별자치도 제주시 용담2동 2002,y
974,곽지애수욕장,제주특별자치도 제주시 다호길 33-15,구경,33.4508421,126.3053446,2018-08-02,2018-08-02,제주특별자치도 제주시 애월읍 곽지리 1565,y
975,제주공항,제주특별자치도 제주시 공항로 2,제주도착,33.5067741,126.4928421,2018-08-02,2018-08-02,제주특별자치도 제주시 용담2동 2002,y
976,공항도착,제주특별자치도 제주시 다호길 103,1시도착,33.5016119,126.4926891,2018-08-03,2018-08-03,제주특별자치도 제주시 용담2동 1935-1,y
977,제주국제공항,제주특별자치도 제주시 명주길 36-4,공항도착,33.4958626,126.4955115,2018-08-03,2018-08-03,제주특별자치도 제주시 연동 111-38,y
978,제주국제공항,,1234,33.5032283,126.4912923,2018-08-03,2018-08-03,제주특별자치도 제주시 도두동 19-2,y
979,올레국수,제주특별자치도 제주시 독짓골8길 26,1234,33.4918528,126.5321466,2018-08-03,2018-08-03,제주특별자치도 제주시 이도2동 80-2,y
980,올레국수,,123,33.4901755,126.4971894,2018-08-03,2018-08-03,제주특별자치도 제주시 연동 301-15,y
981,숙소,,1234,33.2422246,126.564938,2018-08-03,2018-08-03,제주특별자치도 서귀포시 송산동 726-16,y
982,진주식당,,오분작뚝배기,33.2482278,126.5618739,2018-08-03,2018-08-03,제주특별자치도 서귀포시 중앙동 340,y
983,숙소2,제주특별자치도 제주시 신대로10길 42-1,1234,33.4911905,126.492151,2018-08-03,2018-08-03,제주특별자치도 제주시 연동 270-14,y
988,앤트러사이트,제주특별자치도 제주시 한림로 564,레몬마들렌존맛,33.407885,126.2582441,2018-08-04,2018-08-04,제주특별자치도 제주시 한림읍 동명리 1715,y
989,공항,,1,33.4947577,126.4916661,2018-08-04,2018-08-04,제주특별자치도 제주시 도두동 159-3,y
990,제주공항,제주특별자치도 제주시 다호6길 15,도착,33.5064643,126.4931496,2018-08-05,2018-08-05,제주특별자치도 제주시 용담2동 1462-1,y
759,군산공항,제주특별자치도 제주시 다호동길 33,10:44분 출발,35.9241919,126.6146852,2018-07-12,2018-07-12,전라북도 군산시 옥서면 선연리 396-6,y
768,3일차 숙소,제주특별자치도 서귀포시 중앙로41번길 12,숙소숙소,33.2480171,126.5603292,2018-07-13,2018-07-13,제주특별자치도 서귀포시 천지동 311-24,y
813,test,제주특별자치도 서귀포시 영실로 492,test,33.3696413,126.5643841,2018-07-16,2018-07-16,제주특별자치도 서귀포시 남원읍 하례리 산1-7,y
811,요망진밥상,,ㅇㅇ,33.3769321,126.4402232,2018-07-16,2018-07-16,제주특별자치도 제주시 애월읍 유수암리 산139,y
812,테스트 ,,테스트 ,33.2999596,126.5110987,2018-07-16,2018-07-16,제주특별자치도 서귀포시 대천동 산1,y
814,test123,제주특별자치도 서귀포시 1100로 1187,123,33.3375723,126.4519446,2018-07-16,2018-07-16,제주특별자치도 서귀포시 중문동 산1-3,y
815,집,,집,33.325566,126.7252459,2018-07-16,2018-07-16,제주특별자치도 서귀포시 남원읍 의귀리 557-5,y
822,유리의성,,유리테마파크. 유리공예등 체험 할수 있는 곳,33.3141326,126.2748498,2018-07-17,2018-07-17,제주특별자치도 제주시 한경면 저지리 산38-7,y
844,해녀파스타,,점심식사,33.4097205,126.2637948,2018-07-19,2018-07-19,제주특별자치도 제주시 한림읍 한림리 1560,y
831,써니허니 게스트하우스,제주특별자치도 제주시 중산간동로 2234,게스트하우스,33.4717876,126.7813372,2018-07-17,2018-07-17,제주특별자치도 제주시 구좌읍 송당리 1359-1,y
843,푸드트럭바당꽃,,점심식사,33.4785807,126.3574473,2018-07-19,2018-07-19,제주특별자치도 제주시 애월읍 신엄리 2791-5,y
845,제주양떼목장,제주특별자치도 제주시 도치돌길 293 통나무파크,양떼목장관광,33.4106944,126.365729,2018-07-19,2018-07-19,제주특별자치도 제주시 애월읍 납읍리 102,y
848,원더먼트제주,제주특별자치도 서귀포시 이어도로 41 대기정식당,홍차,33.5374182,126.6683403,2018-07-19,2018-07-19,제주특별자치도 제주시 조천읍 함덕리 914-10,y
849,코코마마 -랍스타,제주특별자치도 서귀포시 이어도로 41 대기정식당,점심식사,33.4605999,126.9352661,2018-07-19,2018-07-19,제주특별자치도 제주시 조천읍 함덕리 914-10,y
850,자매식당,제주특별자치도 제주시 다랑곶1길 16 세기6차아파트,저녁,33.4881419,126.4779299,2018-07-19,2018-07-19,제주특별자치도 제주시 노형동 1066-2,y
851,망고주스,제주특별자치도 제주시 다랑곶1길 16 세기6차아파트,망고,33.2463356,126.5374429,2018-07-19,2018-07-19,제주특별자치도 서귀포시 대륜동 473-1,y
861,오렌지슈가,제주특별자치도 제주시 임항로 154 제주해양경찰서,상가리 258 오렌지슈가,33.4072738,126.3744114,2018-07-20,2018-07-20,제주특별자치도 제주시 애월읍 상가리 33-5,y
862,한라렌터카,제주특별자치도 제주시 다호길 126,한라렌터카,33.5027089,126.493903,2018-07-20,2018-07-20,제주특별자치도 제주시 용담2동 1922-3,y
864,제주국제공항,,14시 35분 도착예정,33.5066086,126.493148,2018-07-20,2018-07-20,제주특별자치도 제주시 용담2동 1462-1,y
870,성산일출봉,제주특별자치도 제주시 공항로 2,성산일출봉 ,33.4580283,126.9411068,2018-07-20,2018-07-20,제주특별자치도 서귀포시 성산읍 성산리 1,y
871,섭지코지,제주특별자치도 서귀포시 섭지코지로 262,섭지코지,33.4237303,126.930042,2018-07-20,2018-07-20,제주특별자치도 서귀포시 성산읍 고성리 62-5,y
875,돈고팡,제주특별자치도 제주시 서해안로 356,석식,33.5105134,126.4832423,2018-07-21,2018-07-21,제주특별자치도 제주시 도두동 698,y
877,스타벅스,제주특별자치도 제주시 서해안로 380 화이트하우스,제주용담DT점,33.5123211,126.4844146,2018-07-21,2018-07-21,제주특별자치도 제주시 용담2동 2572-4,y
882,제주항,,제주도착!,33.5252425,126.5381492,2018-07-22,2018-07-22,제주특별자치도 제주시 건입동,y
890,중문오아시스펜션,제주특별자치도 서귀포시 예래로102번길 51,숙소,33.2594301,126.396583,2018-07-22,2018-07-22,제주특별자치도 서귀포시 예래동 414,y
891,삼보식당,제주특별자치도 서귀포시 서문로 45 영빈각모텔,"옥도구이, 자리물회",33.2489861,126.5578555,2018-07-22,2018-07-22,제주특별자치도 서귀포시 천지동 322-3,y
892,갈치조림 테우,제주특별자치도 제주시 조함해안로 428-6,갈치조림점,33.5458482,126.6605916,2018-07-23,2018-07-23,제주특별자치도 제주시 조천읍 함덕리 3133,y
899,제주공항,제주특별자치도 제주시 공항로 2,제주공항,33.5050665,126.4916155,2018-07-23,2018-07-23,제주특별자치도 제주시 도두동 1,y
894,뱃도새기,제주특별자치도 제주시 조함해안로 428-6,흑돼지 전문점,33.2551744,126.5793953,2018-07-23,2018-07-23,제주특별자치도 서귀포시 영천동 841-8,y
909,더클리프,제주특별자치도 서귀포시 중문관광로 154-17,ㅇ,33.2444318,126.4149536,2018-07-23,2018-07-23,제주특별자치도 서귀포시 예래동 2950-4,y
897,브라운스위트호텔,제주특별자치도 서귀포시 고성오조로 94 디아일랜드 마리나 호텔,숙소,33.4520608,126.9145026,2018-07-23,2018-07-23,제주특별자치도 서귀포시 성산읍 고성리 1201,y
901,마가리따 은혜씨,제주특별자치도 서귀포시 일출로 258-11 삼다식당,점심,33.4610351,126.9342411,2018-07-23,2018-07-23,제주특별자치도 서귀포시 성산읍 성산리 140-8,y
904,공항,,제주공항,33.4965964,126.4863951,2018-07-23,2018-07-23,제주특별자치도 제주시 도두동 233-1,y
1091,에어비앤비,,협재해수욕장근처,33.4009697,126.2540194,2018-08-12,2018-08-12,제주특별자치도 제주시 한림읍 옹포리 163-1,y
1179,플레이케이팝,제주특별자치도 서귀포시 중문관광로110번길 15,케이팝,33.2499325,126.4134053,2018-08-26,2018-08-26,제주특별자치도 서귀포시 예래동 2864-36,y
1095,출발,제주특별자치도 제주시 다호길 121,제주도 여행 출발 / 렌트,33.5061032,126.4928134,2018-08-12,2018-08-12,제주특별자치도 제주시 용담2동 1984-5,y
1168,성이시돌,제주특별자치도 제주시 애월읍 사라길 149,ㅇㅇ,33.3455927,126.3343352,2018-08-22,2018-08-22,제주특별자치도 제주시 한림읍 금악리 70,y
1132,아침식사(미정),제주특별자치도 제주시 중앙로14길 21,공항근처에서 간단한 식사,33.5036609,126.513165,2018-08-17,2018-08-17,제주특별자치도 제주시 용담1동 2830-1,y
1169,ㄱ,제주특별자치도 제주시 애월읍 사라길 149,ㄱ,33.3455927,126.3343352,2018-08-22,2018-08-22,제주특별자치도 제주시 한림읍 금악리 70,y
1193,달무지개,제주특별자치도 서귀포시 상예로 530 스카이힐골프장,편집샵,33.3073301,126.7685833,2018-08-27,2018-08-27,제주특별자치도 서귀포시 대천동 701-2,y
1196,제주 '이음',제주특별자치도 제주시 문송1길 19,음식점,33.5235708,126.8622415,2018-08-27,2018-08-27,제주특별자치도 제주시 용담2동 2002-7,y
1199,성산일출봉,제주특별자치도 제주시 공항로 2,성산일출봉,33.4553916,126.9436649,2018-08-27,2018-08-27,제주특별자치도 제주시 우도면 연평리 1767,y
1201,제주공항,제주특별자치도 제주시 다호북길 7,제주도 도착,33.4945127,126.4927713,2018-08-27,2018-08-27,제주특별자치도 제주시 용담2동 2580-77,y
1202,세화 해변,제주특별자치도 제주시 공항로 2,바다,33.5251022,126.8608303,2018-08-27,2018-08-27,제주특별자치도 제주시 우도면 연평리 1767,y
1205,월정리 해변,제주특별자치도 제주시 공항로 2,바다,33.5555955,126.7967245,2018-08-27,2018-08-27,제주특별자치도 제주시 우도면 연평리 1767,y
1206,더조은하우스,제주특별자치도 서귀포시 안덕면 향교로 184,숙소,33.2354427,126.2891118,2018-08-28,2018-08-28,제주특별자치도 서귀포시 안덕면 사계리 3159-9,y
1208,점심식사(자율),제주특별자치도 제주시 애월읍 애월로1길 25,해안산책로 점심식사 자율,33.462456,126.3095287,2018-08-28,2018-08-28,제주특별자치도 제주시 애월읍 애월리 2540,y
1210,비양도,제주특별자치도 서귀포시 성산읍 성산등용로 107-17,비양도,33.5142984,126.9672362,2018-08-29,2018-08-29,제주특별자치도 제주시 우도면 연평리 15,y
1211,비양도야영장,제주특별자치도 서귀포시 성산읍 성산등용로 107-17,야영장,33.5148043,126.9673843,2018-08-29,2018-08-29,제주특별자치도 제주시 우도면 연평리 10,y
1244,동복뚝배기,제주특별자치도 제주시 구좌읍 동복로 30-2,오분자기,33.5531629,126.7093693,2018-09-03,2018-09-03,제주특별자치도 제주시 구좌읍 동복리 1685-11,y
1215,여객터미널,제주특별자치도 제주시 임항로 111 제주항연안여객터미널,목포행,33.5189831,126.5347288,2018-08-29,2018-08-29,제주특별자치도 제주시 건입동 918-32,y
1216,대명 샤인빌 리조트,,대명 샤인빌 리조트,33.3171527,126.8304554,2018-08-31,2018-08-31,제주특별자치도 서귀포시 표선면 표선리 1087-1,y
1218,제주도국제공항,제주특별자치도 제주시 공항로 2,[제주항공] 12:15 비행기,33.5080458,126.4924423,2018-08-31,2018-08-31,제주특별자치도 제주시 용담2동 2002,y
1221,올레국수,제주특별자치도 제주시 신대로 63,한그릇각,33.4915044,126.497015,2018-09-01,2018-09-01,제주특별자치도 제주시 연동 301-10,y
1224,협재해수욕장,제주특별자치도 제주시 한림읍 한림로 300,이쁨,33.3909175,126.2416199,2018-09-01,2018-09-01,제주특별자치도 제주시 한림읍 협재리 2610-1,y
1246,제주황금문어,제주특별자치도 서귀포시 칠십리로 157 태평양횟집,점심,33.2450832,126.569974,2018-09-03,2018-09-03,제주특별자치도 서귀포시 정방동 101-4,y
1245,라이트아트페스타,제주특별자치도 제주시 조천읍 선교로 115-1 다희연,제주라프,33.4868851,126.7070631,2018-09-03,2018-09-03,제주특별자치도 제주시 조천읍 선흘리 600-6,y
1247,제주어사또,제주특별자치도 제주시 조천읍 조함해안로 478,저녁,33.5430835,126.6640026,2018-09-03,2018-09-03,제주특별자치도 제주시 조천읍 함덕리 1252-43,y
1248,카페,제주특별자치도 제주시 조천읍 조함해안로 478,카페,33.2407478,126.5459599,2018-09-03,2018-09-03,제주특별자치도 서귀포시 천지동 794-3,y
1249,목동그릴,제주특별자치도 제주시 관덕로13길 3,냉면,33.5134857,126.5257918,2018-09-03,2018-09-03,제주특별자치도 제주시 일도1동 1465-4,y
1250,공항,,공항,33.497231,126.4934288,2018-09-03,2018-09-03,제주특별자치도 제주시 용담2동 1810,y
1251,에어그라운드,,카페 및 숙박,33.2857504,126.748962,2018-09-03,2018-09-03,제주특별자치도 서귀포시 남원읍 태흥리 405-1,y
1252,제주항공,제주특별자치도 제주시 연삼로 121 에스포아,ㅇ,33.4934585,126.5051843,2018-09-03,2018-09-03,제주특별자치도 제주시 오라동 2820,y
1257,눈의꽃펜션,제주특별자치도 제주시 한림읍 한림상로 280,숙소,33.4232019,126.266716,2018-09-04,2018-09-04,제주특별자치도 제주시 한림읍 대림리 2007-3,y
1255,스마트렌트카,제주특별자치도 제주시 오도11길 19,렌트카,33.4896021,126.4601011,2018-09-03,2018-09-03,제주특별자치도 제주시 이호동 1112-2,y
997,크랩잭,제주특별자치도 제주시 애월해안로 765,크랩 냠냠,33.4855099,126.3818658,2018-08-05,2018-08-05,제주특별자치도 제주시 애월읍 구엄리 505,y
999,바당언덕(숙소),제주특별자치도 서귀포시 서리오름로 191-12,제주특별자치도 서귀포시 신효동 1045-4064-733-5009,33.2581222,126.6042658,2018-08-05,2018-08-05,제주특별자치도 서귀포시 효돈동 1045-4,y
1008,춤추는달,제주특별자치도 서귀포시 중문상로192번길 49,제주특별자치도 서귀포시 중문동 802-14,33.2680635,126.4313168,2018-08-06,2018-08-06,제주특별자치도 서귀포시 중문동 802-3,y
1011,신성리조트,제주특별자치도 서귀포시 이어도로 989,신성리조트 숙소,33.2423602,126.5183816,2018-08-07,2018-08-07,제주특별자치도 서귀포시 대륜동 87-1,y
1067,드르쿰다,,드르쿰다,33.4030598,126.7833083,2018-08-10,2018-08-10,제주특별자치도 서귀포시 성산읍 고성리 1180-2,y
1080,주상절리,제주특별자치도 서귀포시 일주동로 4146-20,주상절리구경,33.2321535,126.4298505,2018-08-10,2018-08-10,제주특별자치도 서귀포시 중문동,y
1195,다락마마 숙소,제주특별자치도 제주시 문송1길 19,첫째날 숙소,33.5171859,126.8662783,2018-08-27,2018-08-27,제주특별자치도 제주시 용담2동 2002-7,y
1150,제주국제공항,제주특별자치도 제주시 공항로 2,도착~~,33.5066346,126.4928032,2018-08-20,2018-08-20,제주특별자치도 제주시 용담2동 2002,y
1138,마구로쇼쿠도,제주특별자치도 제주시 남광북1길 31-1 동아빌딩,참치,33.496073,126.536751,2018-08-17,2018-08-17,제주특별자치도 제주시 이도2동 1063-11,y
1160,르토아베이스먼트 카페,제주특별자치도 서귀포시 성산읍 한도로 269-37,제주 제주시 구좌읍 평대리 2005,33.533143,126.8439889,2018-08-21,2018-08-21,제주특별자치도 제주시 아라동 산67-18,y
1177,종달항 ,,종달항,33.4948929,126.9091873,2018-08-25,2018-08-25,제주특별자치도 제주시 구좌읍 종달리 572-3,y
1200,토끼썸 피크닉 카페,제주특별자치도 제주시 공항로 2,카페,33.521922,126.8988501,2018-08-27,2018-08-27,제주특별자치도 제주시 우도면 연평리 1767,y
1197,제주공항,제주특별자치도 제주시 공항로 2,제주공항,33.5061861,126.4926534,2018-08-27,2018-08-27,제주특별자치도 제주시 용담2동 2002,y
1198,우도,제주특별자치도 제주시 공항로 2,우도,33.4957171,126.9511925,2018-08-27,2018-08-27,제주특별자치도 제주시 우도면 연평리 1767,y
1203,제주 해녀박물관,제주특별자치도 제주시 공항로 2,박물관,33.5234818,126.8633559,2018-08-27,2018-08-27,제주특별자치도 제주시 우도면 연평리 1767,y
1204,구좌상회 카페,제주특별자치도 제주시 공항로 2,카페,33.5562022,126.7927221,2018-08-27,2018-08-27,제주특별자치도 제주시 우도면 연평리 1767,y
1220,제주공항,,공항도착,33.5038768,126.4943854,2018-09-01,2018-09-01,제주특별자치도 제주시 용담2동 1969-4,y
1222,이호테우 해변,제주특별자치도 제주시 테우해안로 172-23,바다임,33.4965925,126.4526536,2018-09-01,2018-09-01,제주특별자치도 제주시 이호동 1665-1,y
1223,"애월항, 애월해안도로",제주특별자치도 제주시 테우해안로 172-23,이쁨,33.4668147,126.3219773,2018-09-01,2018-09-01,제주특별자치도 제주시 이호동 1665-1,y
1262,마더카페,제주특별자치도 서귀포시 남원읍 태위로894번길 45,제주 집밥,33.2810103,126.7412697,2018-09-06,2018-09-06,제주특별자치도 서귀포시 남원읍 태흥리 1114-1,y
1265,우도,제주특별자치도 서귀포시 남원읍 남위남성로257번길 108,우도 한바퀴,33.4955184,126.9584968,2018-09-06,2018-09-06,제주특별자치도 제주시 우도면 연평리 356,y
1263,제주에서돌고래를만난다면펜션,제주특별자치도 제주시 구좌읍 해맞이해안로 1566,바다가 보이는 펜션,33.528446,126.8707754,2018-09-06,2018-09-06,제주특별자치도 제주시 구좌읍 하도리 3089,y
1266,탐라스테이호텔,제주특별자치도 제주시 삼무로3길 18,숙소,33.4522352,126.3259321,2018-09-06,2018-09-06,제주특별자치도 제주시 애월읍 애월리 862,y
1267,도착,제주특별자치도 서귀포시 남원읍 남위남성로257번길 108,제주도 도착,33.5029521,126.4871616,2018-09-06,2018-09-06,제주특별자치도 제주시 도두동 411,y
1268,풀향기휴양펜션,제주특별자치도 서귀포시 안덕면 대평감산로 59 풀향기휴양펜션,늘 푸른 자연과 더불어 함께 살아가는 곳 !! 편안한 휴식공간! ,33.2392861,126.3654256,2018-09-06,2018-09-06,제주특별자치도 서귀포시 안덕면 창천리 929-1,y
1269,제주국제공항,,공항,33.5044325,126.4938144,2018-09-06,2018-09-06,제주특별자치도 제주시 용담2동 1946,y
1270,제주공항,제주특별자치도 제주시 신성마을길 26,"15:00 공항도착, 렌트카 픽업",33.4960374,126.48862,2018-09-06,2018-09-06,제주특별자치도 제주시 도두동 249-16,y
1271,1,제주특별자치도 제주시 공항로 2,11,33.5064594,126.4925468,2018-09-06,2018-09-06,제주특별자치도 제주시 용담2동 2002,y
1272,성산썬라이즈호텔,제주특별자치도 서귀포시 성산중앙로19번길 11-1,성산썬라이즈호텔,33.4625069,126.9312151,2018-09-07,2018-09-07,제주특별자치도 서귀포시 성산읍 성산리 169-18,y
1273,커큐민흑돼지,제주특별자치도 서귀포시 일출로 84,제주 커큐민흑돼지,33.4499015,126.9211573,2018-09-07,2018-09-07,제주특별자치도 서귀포시 성산읍 고성리 236,y
1275,호텔 윈스토리,제주특별자치도 서귀포시 중정로 11,호텔,33.2476936,126.5576142,2018-09-09,2018-09-09,제주특별자치도 서귀포시 천지동 318-17,y
993,이호테우,제주특별자치도 제주시 공항로 2,이호테우,33.4972404,126.4527803,2018-08-05,2018-08-05,제주특별자치도 제주시 이호동 1962-5,y
1002,비행기,제주특별자치도 제주시 공항로 2,도착,33.5067247,126.4932328,2018-08-05,2018-08-05,제주특별자치도 제주시 용담2동 2002,y
1004,제주공항,제주특별자치도 제주시 공항로 2,집으로 고고,33.5071498,126.4932451,2018-08-06,2018-08-06,제주특별자치도 제주시 용담2동 2002,y
1277,제주한끼,제주특별자치도 제주시 서해안로 24,도시락 사서 아침미소목장,33.4998414,126.4568938,2018-09-09,2018-09-09,제주특별자치도 제주시 이호동 440-7,y
1122,마린리조트 선상낚시,제주특별자치도 서귀포시 성산읍 성산등용로 112-7,우도 선상낚시,33.4724521,126.9324203,2018-08-17,2018-08-17,제주특별자치도 서귀포시 성산읍 성산리 347-9,y
1276,풍림다방,제주특별자치도 제주시 중산간동로 2254,수요미식회에 나온 카페,33.4715727,126.7835833,2018-09-09,2018-09-09,제주특별자치도 제주시 구좌읍 송당리 1373-1,y
1279,봉끄랑,제주특별자치도 제주시 우도면 우도해안길 144,땅콩아이스크림,33.4943139,126.9449449,2018-09-09,2018-09-09,제주특별자치도 제주시 우도면 연평리 2649-1,y
1285,워터서커스,제주특별자치도 제주시 비자림로 1156-22,구좌읍 번영로 2172-80 ,33.4230002,126.7457588,2018-09-11,2018-09-11,제주특별자치도 제주시 구좌읍 송당리 산266,y
1282,리벤시아 호텔,,제주 리벤시아 풀빌라&호텔,33.3767236,126.2170913,2018-09-09,2018-09-09,제주특별자치도 제주시 한림읍 월령리 259-6,y
1283,크랩잭 제주,제주특별자치도 제주시 구엄4길 12,크랩잭,33.4812426,126.3775871,2018-09-09,2018-09-09,제주특별자치도 제주시 애월읍 구엄리 645-1,y
1286,샐리스 제주 호텔,제주특별자치도 제주시 고내로 46,http://www.sallysjeju.com/,33.4646018,126.3417077,2018-09-11,2018-09-11,제주특별자치도 제주시 애월읍 하가리 1258-1,y
1287,코코넛카페 jam&cafe,제주특별자치도 제주시 애월해안로 907,https://place.map.daum.net/623790077,33.4848278,126.3924233,2018-09-11,2018-09-11,제주특별자치도 제주시 애월읍 하귀2리 2707-2,y
1288,팔롬비니,제주특별자치도 제주시 서광로 112,https://store.naver.com/restaurants/detailid=1057737818,33.4996316,126.5083711,2018-09-11,2018-09-11,제주특별자치도 제주시 오라동 2401-46,y
1289,sd,,sadsad,33.3178269,126.3783163,2018-09-11,2018-09-11,제주특별자치도 서귀포시 안덕면 상천리 573,y
1290,제주공항,제주특별자치도 제주시 공항로 2,공항도착,33.5067817,126.493146,2018-09-12,2018-09-12,제주특별자치도 제주시 용담2동 2002,y
1291,투어센터,제주특별자치도 제주시 오일장서길 63,소나타뉴라이즈(완전자차),33.4970882,126.4719275,2018-09-12,2018-09-12,제주특별자치도 제주시 도두동 2246-1,y
1292,모래비카페,제주특별자치도 제주시 해맞이해안로 462,윤희언니가 가고싶은 카페,33.5554432,126.7962005,2018-09-12,2018-09-12,제주특별자치도 제주시 구좌읍 월정리 536-4,y
1293,산굼부리,제주특별자치도 제주시 해맞이해안로 462,"약간의 동산, 멋잇는 풍경",33.4321356,126.6907335,2018-09-12,2018-09-12,제주특별자치도 제주시 조천읍 교래리 산38-1,y
1294,스위스마을,제주특별자치도 제주시 함와로 566-27,윤희언니가 가고싶은곳,33.4943534,126.677388,2018-09-12,2018-09-12,제주특별자치도 제주시 조천읍 와산리 1559-18,y
1295,김녕미로공원,제주특별자치도 제주시 만장굴길 122,미로,33.5364504,126.7722617,2018-09-12,2018-09-12,제주특별자치도 제주시 구좌읍 김녕리 산16,y
1296,모두의식당,제주특별자치도 제주시 선교로 474-1,아직미정,33.4633572,126.7104375,2018-09-12,2018-09-12,제주특별자치도 제주시 조천읍 선흘리 1817,y
1297,제주 관광승마,제주특별자치도 제주시 비자림로 485-15,티몬구입예정,33.4301067,126.6660116,2018-09-13,2018-09-13,제주특별자치도 제주시 조천읍 교래리 산119-1,y
1298,유어스호텔,제주특별자치도 서귀포시 천제연로178번길 21,ㅎㅌ,33.2498681,126.4237303,2018-09-13,2018-09-13,제주특별자치도 서귀포시 중문동 2129-2,y
1299,러브랜드,제주특별자치도 제주시 1100로 2894-64,러브랜드,33.4506648,126.4882863,2018-09-14,2018-09-14,제주특별자치도 제주시 연동 680-24,y
1300,만장굴,제주특별자치도 제주시 1100로 2894-64,만장굴,33.5263916,126.7734228,2018-09-14,2018-09-14,제주특별자치도 제주시 구좌읍 행원리 3336,y
1301,월정암리,제주특별자치도 제주시 월정7길 28-8,월정암해수욕장,33.5539935,126.7976665,2018-09-14,2018-09-14,제주특별자치도 제주시 구좌읍 월정리 46,y
1302,교래향,제주특별자치도 제주시 명림로 584 절물휴양림,흑돼지,33.4350596,126.676317,2018-09-15,2018-09-15,제주특별자치도 제주시 조천읍 교래리 산56-8,y
1303,대풍옥,제주특별자치도 서귀포시 일주동로 8737 선반내가든,왕갈비탕,33.2519616,126.554897,2018-09-15,2018-09-15,제주특별자치도 서귀포시 천지동 332-3,y
1304,라곰,제주특별자치도 제주시 행원로1길 32-2,철판요리,33.5546684,126.8000333,2018-09-15,2018-09-15,제주특별자치도 제주시 구좌읍 행원리 1537-6,y
1305,스시마씸,제주특별자치도 제주시 월정3길 50,"회, 초밥",33.5551934,126.794531,2018-09-15,2018-09-15,제주특별자치도 제주시 구좌읍 월정리 500-1,y
1306,식을탐하다,제주특별자치도 서귀포시 일출로 293,한식,33.4635503,126.9345935,2018-09-15,2018-09-15,제주특별자치도 서귀포시 성산읍 성산리 197-1,y
1013,환상숲곶자왈,,2,33.3227965,126.2632334,2018-08-08,2018-08-08,제주특별자치도 제주시 한림읍 협재리 2514,y
1003,소다공,,옥돔파스타,33.4491064,126.8801188,2018-08-05,2018-08-05,제주특별자치도 서귀포시 성산읍 성산리 1,y
1018,본태박물관,제주특별자치도 서귀포시 산록남로762번길 69 본태박물관,7,33.3037986,126.3924547,2018-08-08,2018-08-08,제주특별자치도 서귀포시 안덕면 상천리 380,y
1016,산방산,제주특별자치도 서귀포시 추사로 44,5,33.2365326,126.3124676,2018-08-08,2018-08-08,제주특별자치도 서귀포시 안덕면 사계리 3578,y
1022,세리월드,제주특별자치도 서귀포시 법환상로2번길 97-17 더 세리 리조트,10,33.2468156,126.5119171,2018-08-08,2018-08-08,제주특별자치도 서귀포시 대륜동 877-1,y
1031,성산일출봉,제주특별자치도 서귀포시 일출로 86,19,33.4588605,126.9405234,2018-08-08,2018-08-08,제주특별자치도 서귀포시 성산읍 성산리 1,y
1034,거문오름,제주특별자치도 서귀포시 일출로 86,21,33.4546759,126.7187123,2018-08-08,2018-08-08,제주특별자치도 서귀포시 성산읍 성산리 1,y
1036,월정리 해변,제주특별자치도 서귀포시 일출로 86,23,33.5556309,126.7966744,2018-08-08,2018-08-08,제주특별자치도 서귀포시 성산읍 성산리 1,y
1037,4.3 평화공원,제주특별자치도 서귀포시 일출로 86,24,33.4506326,126.6213995,2018-08-08,2018-08-08,제주특별자치도 제주시 봉개동,y
1038,국립 제주 박물관,제주특별자치도 제주시 일주동로 17,25,33.5127775,126.5493278,2018-08-08,2018-08-08,제주특별자치도 제주시 건입동 261,y
1045,공항,제주특별자치도 제주시 고성남4길 32-3,공항,33.4749324,126.5055339,2018-08-08,2018-08-08,제주특별자치도 제주시 오라동 산27,y
1047,베이비엔카,,카시트렌탈,33.499336,126.5023483,2018-08-09,2018-08-09,제주특별자치도 제주시 용담2동 2786-1,y
1109,켄싱턴리조트,제주특별자치도 서귀포시 이어도로 684 켄싱턴리조트,숙소,33.2334751,126.4890776,2018-08-14,2018-08-14,제주특별자치도 서귀포시 대천동 2677,y
1084,흑돼지 쌈밥,제주특별자치도 제주시 천수로 9-1 은영빌라,ㅇㅇ,33.502694,126.5381997,2018-08-11,2018-08-11,제주특별자치도 제주시 이도2동 323-3,y
1086,에밀리파크,,에밀리파크,33.5249091,126.620612,2018-08-11,2018-08-11,대한민국,y
1102,신제주시이마트,,ㄴㅇㄻㅇㄴ,33.4844801,126.5107082,2018-08-14,2018-08-14,제주특별자치도 제주시 오라동 1815-2,y
1106,제주공항,제주특별자치도 제주시 다호길 103,0,33.5018427,126.4926865,2018-08-14,2018-08-14,제주특별자치도 제주시 용담2동 1935-6,y
1111,켄싱턴리조트 체크인,제주특별자치도 서귀포시 이어도로 684 켄싱턴리조트,숙소,33.232566,126.4895174,2018-08-14,2018-08-14,제주특별자치도 서귀포시 대천동 5647,y
1112,피규어뮤지엄,제주특별자치도 서귀포시 안덕면 한창로 243,피규어,33.2819311,126.3553991,2018-08-15,2018-08-15,제주특별자치도 서귀포시 안덕면 상창리 1875-8,y
1113,하우목동포구,,우도여행 시작,33.5094463,126.9423835,2018-08-15,2018-08-15,제주특별자치도 서귀포시 예래동,y
1123,가람돌솥밥,제주특별자치도 서귀포시 중문관광로 332 가람돌솥밥,해물,33.2495532,126.4313247,2018-08-17,2018-08-17,제주특별자치도 서귀포시 중문동 748,y
1120,제주공항,,제주도 도착,33.5048603,126.4911012,2018-08-17,2018-08-17,제주특별자치도 제주시 도두동 2607-29,y
1136,표선 칼국수,,"화요일 휴무돈가스(8), 보말죽(7), 보말전(7), 고로케(6)2만8천원",33.3251196,126.8441138,2018-08-17,2018-08-17,대한민국,y
1128,어승생,제주특별자치도 제주시 1100로 2070-61 한라산국립공원관리사무소,어승생,33.3914625,126.4944778,2018-08-17,2018-08-17,제주특별자치도 제주시 노형동 산220-13,y
1137,용산제주유스호스텔,제주특별자치도 서귀포시 이어도로 305-1,꿀,33.2438761,126.4515615,2018-08-17,2018-08-17,제주특별자치도 서귀포시 중문동 1715,y
1139,광평도새기촌 표선점,,흑돼지,33.3292999,126.8212356,2018-08-17,2018-08-17,대한민국,y
1144,운정이네본점,,갈치,33.2634596,126.437676,2018-08-18,2018-08-18,제주특별자치도 서귀포시 중문동 1239-3,y
1155,사무이제주 숙소,제주특별자치도 제주시 애월읍 부룡수길 38-24,부룡수길 38-22,33.4736702,126.3560938,2018-08-21,2018-08-21,제주특별자치도 제주시 애월읍 신엄리 2860-2,y
1161,일식 소봉식당,제주특별자치도 서귀포시 성산읍 한도로 269-37,제주 서귀포시 안덕면 사계로 191,33.2466345,126.3028669,2018-08-21,2018-08-21,제주특별자치도 서귀포시 안덕면 사계리 3578-30,y
1165,제주공항도착,제주특별자치도 제주시 공항로1길 20,제주공항도착,33.499772,126.4935716,2018-08-22,2018-08-22,제주특별자치도 제주시 용담2동 1901,y
1166,광해 갈치,제주특별자치도 제주시 애월읍 애월해안로 867,제주 제주시 애월읍 애월해안로 867,33.4877074,126.3903568,2018-08-22,2018-08-22,제주특별자치도 제주시 애월읍 하귀2리 2740-8,y
1167,만장굴,제주특별자치도 제주시 애월읍 사라길 149,동굴,33.5276201,126.7711564,2018-08-22,2018-08-22,제주특별자치도 제주시 애월읍 상가리 1623-3,y
1172,제주공항도착오후3시30분,제주특별자치도 제주시 공항로 2,도착,33.5068577,126.492736,2018-08-23,2018-08-23,제주특별자치도 제주시 용담2동 2002,y
1066,고성장터국밥,,고성장터국밥,33.4511366,126.9129639,2018-08-10,2018-08-10,제주특별자치도 서귀포시 성산읍 고성리 1180-2,y
1152,용두암,제주특별자치도 제주시 공항로 2,용두암,33.5157864,126.5115739,2018-08-20,2018-08-20,제주특별자치도 제주시 용담1동,y
1153,이익새양과점,,파운드케이크,33.4068386,126.2651182,2018-08-20,2018-08-20,제주특별자치도 제주시 한림읍 동명리 1576-6,y
1174,멜터블,,개조심,33.5020682,126.9446986,2018-08-24,2018-08-24,제주특별자치도 제주시 우도면 연평리 2656,y
1207,점심식사(자율),제주특별자치도 서귀포시 1100로 740-168 법정사,해안산책로 근처 점심식사,33.4599164,126.310624,2018-08-28,2018-08-28,제주특별자치도 제주시 애월읍 애월리 2438,y
1209,아침식사(미정),제주특별자치도 제주시 애월읍 애월로1길 25,주변 식당에서 아침식사,33.4368917,126.6771702,2018-08-28,2018-08-28,제주특별자치도 제주시 봉개동,y
1212,아침겸 점심(미정),제주특별자치도 제주시 관덕로2길 19,아점,33.4364728,126.6773943,2018-08-29,2018-08-29,제주특별자치도 제주시 삼도2동 909,y
1213,저녁식사(칠돈가),제주특별자치도 제주시 한천로 47,흑돼지집,33.5026306,126.5104302,2018-08-29,2018-08-29,제주특별자치도 제주시 용담2동 2621-3,y
1225,애월더선셋,제주특별자치도 제주시 애월읍 일주서로 6111,카페,33.4562242,126.309022,2018-09-01,2018-09-01,제주특별자치도 제주시 애월읍 곽지리 1381,y
1227,오셜록티,제주특별자치도 제주시 한림읍 광산로 836,녹차,33.3014488,126.2898672,2018-09-01,2018-09-01,제주특별자치도 서귀포시 안덕면 서광리 2489-14,y
1228,오롯,,비빔밥,33.4907356,126.544025,2018-09-01,2018-09-01,제주특별자치도 제주시 아라동 3011-8,y
1230,성이시돌목장,,목장,33.3467855,126.3272941,2018-09-02,2018-09-02,제주특별자치도 제주시 한림읍 금악리 135-1,y
1231,신창풍차해안도로,,풍차,33.3425365,126.1722288,2018-09-02,2018-09-02,제주특별자치도 제주시 한경면 신창리 1341,y
1232,박물관은살아있다,제주특별자치도 서귀포시 중문관광로 42,박물관,33.2545853,126.4088998,2018-09-02,2018-09-02,제주특별자치도 서귀포시 예래동 2629,y
1233,숙소,제주특별자치도 서귀포시 중앙로48번길 15,숙소,33.249308,126.5628874,2018-09-02,2018-09-02,제주특별자치도 서귀포시 중앙동 276-6,y
1234,올레시장,제주특별자치도 서귀포시 중정로73번길 12-1,시장,33.2491718,126.5640482,2018-09-02,2018-09-02,제주특별자치도 서귀포시 중앙동 272-26,y
1235,천지연폭포,제주특별자치도 서귀포시 중정로73번길 12-1,폭포,33.2453381,126.5557974,2018-09-02,2018-09-02,제주특별자치도 서귀포시 천지동 653-2,y
1236,부영호텔 체크아웃,제주특별자치도 서귀포시 중문관광로 216 제주부영리조트,ㅋ,33.2417954,126.4229709,2018-09-02,2018-09-02,제주특별자치도 서귀포시 중문동 2700-3,y
1237,서귀포 올레시장,제주특별자치도 서귀포시 중문관광로 216 제주부영리조트,ㅋ,33.2493611,126.5639611,2018-09-02,2018-09-02,제주특별자치도 서귀포시 중앙동 340,y
1238,이중섭거리,제주특별자치도 서귀포시 이중섭로 29-1,ㄷ,33.2453651,126.5643311,2018-09-02,2018-09-02,제주특별자치도 서귀포시 정방동 513-1,y
1239,쇠소깍,제주특별자치도 서귀포시 남원읍 하례로 249,ㅂ,33.2523664,126.6245064,2018-09-02,2018-09-02,제주특별자치도 서귀포시 남원읍 하례리 1889,y
1240,따라비오름,제주특별자치도 서귀포시 남원읍 하례로 249,ㄷ,33.3875789,126.7534741,2018-09-02,2018-09-02,제주특별자치도 서귀포시 표선면 가시리 산63,y
1241,보름왓,제주특별자치도 서귀포시 표선면 번영로 2350-104,ㄷ,33.413488,126.7525212,2018-09-02,2018-09-02,제주특별자치도 서귀포시 표선면 성읍리 3229-4,y
1242,제주 튤립 성산호텔,제주특별자치도 서귀포시 성산읍 일출로 31,ㄷ,33.4479432,126.916261,2018-09-02,2018-09-02,제주특별자치도 서귀포시 성산읍 고성리 329-1,y
1243,우도가는 성산항,제주특별자치도 서귀포시 성산읍 일출로 31,ㄷ,33.4722105,126.9292418,2018-09-02,2018-09-02,제주특별자치도 서귀포시 성산읍 고성리 329-1,y
1253,블루시티,제주특별자치도 제주시 은남4길 27 블루시티,숙소,33.4861477,126.4927849,2018-09-03,2018-09-03,제주특별자치도 제주시 연동 283-23,y
1256,제주마당,제주특별자치도 제주시 원노형3길 15,통갈치조림,33.4864636,126.484372,2018-09-03,2018-09-03,제주특별자치도 제주시 노형동 914-2,y
1274,물꼬기포차,제주특별자치도 제주시 고산동산5길 27 다복주택,횟집,33.496887,126.5353513,2018-09-08,2018-09-08,제주특별자치도 제주시 이도2동 1051-7,y
1261,제주마당,제주특별자치도 제주시 원노형3길 15,통갈치구이,33.4864193,126.4843418,2018-09-06,2018-09-06,제주특별자치도 제주시 노형동 914-2,y
1264,제주공항,,공항도착,33.4980037,126.4961757,2018-09-06,2018-09-06,제주특별자치도 제주시 용담2동 1761,y
1278,로뎀가든,제주특별자치도 제주시 우도면 우도해안길 264,흑돼지주물럭 한라산볶음밥,33.5035755,126.9427621,2018-09-09,2018-09-09,제주특별자치도 제주시 우도면 연평리 2515,y
1280,해월정,제주특별자치도 제주시 해맞이해안로 2340,"물회, 보말죽",33.4921927,126.9096703,2018-09-09,2018-09-09,제주특별자치도 제주시 구좌읍 종달리 608,y
1284,성판악코스안내,제주특별자치도 제주시 516로 1865,성판악코스시작,33.3849206,126.6197923,2018-09-10,2018-09-10,제주특별자치도 제주시 조천읍 교래리 산137-24,y
1023,기당미술관,제주특별자치도 서귀포시 남성중로153번길 15,11,33.2447257,126.5512115,2018-08-08,2018-08-08,제주특별자치도 서귀포시 천지동 621,y
1020,중문카트,제주특별자치도 서귀포시 1100로 506,9,33.2643196,126.3946151,2018-08-08,2018-08-08,제주특별자치도 서귀포시 예래동 193-5,y
1021,테디베어 뮤지엄,제주특별자치도 서귀포시 중문관광로110번길 31 테디베어박물관,10,33.2503335,126.41218,2018-08-08,2018-08-08,제주특별자치도 서귀포시 예래동 2889,y
1025,천지연,제주특별자치도 서귀포시 중산간동로8183번길 12,14,33.2469104,126.5544321,2018-08-08,2018-08-08,제주특별자치도 서귀포시 천지동 2565,y
1026,이중섭 미술관,제주특별자치도 서귀포시 이중섭로 27-3 이중섭전시관,15,33.2457944,126.5648795,2018-08-08,2018-08-08,제주특별자치도 서귀포시 정방동 532-1,y
1027,올레시장,제주특별자치도 서귀포시 이중섭로 27-3 이중섭전시관,16,33.2493732,126.5639503,2018-08-08,2018-08-08,제주특별자치도 서귀포시 중앙동 340,y
1042,제주 공항,,"공항 도착, 차량 렌트",33.4978787,126.4879097,2018-08-08,2018-08-08,제주특별자치도 제주시 도두동 271,y
1043,김녕해수욕장,,김녕해수욕장,33.5527285,126.7588971,2018-08-08,2018-08-08,제주특별자치도 제주시 오라동 34-14,y
1044,메이즈랜드,,메이즈랜드,33.4864796,126.8017427,2018-08-08,2018-08-08,제주특별자치도 제주시 오라동 34-14,y
1052,제주국제공항,제주특별자치도 제주시 공항로 2,공항,33.5064296,126.4927307,2018-08-09,2018-08-09,제주특별자치도 제주시 용담2동 2002,y
1053,포시즌랜트카,제주특별자치도 제주시 다호북길 150,티볼리 렌트,33.5030964,126.4823206,2018-08-09,2018-08-09,제주특별자치도 제주시 도두동 968-1,y
1051,숙소(아일랜드힐),제주특별자치도 서귀포시 일주서로2842번길 42-9,ㅇ,33.2442476,126.234277,2018-08-09,2018-08-09,제주특별자치도 서귀포시 대정읍 일과리 962-3,y
1055,해모랏펜션,제주특별자치도 서귀포시 환해장성로 797,1박숙소,33.4231941,126.9137815,2018-08-09,2018-08-09,제주특별자치도 서귀포시 성산읍 온평리 1,y
1056,모다정,제주특별자치도 서귀포시 성산중앙로37번길 9,갈치조림구이,33.4636323,126.932403,2018-08-09,2018-08-09,제주특별자치도 서귀포시 성산읍 성산리 180-5,y
1058,라이트아트페스타,제주특별자치도 서귀포시 성산중앙로37번길 9,야경명소,33.487212,126.7068384,2018-08-09,2018-08-09,대한민국,y
1060,우도섬,,우도섬,33.5004098,126.9550213,2018-08-09,2018-08-09,제주특별자치도 제주시 우도면 연평리 1549,y
1061,곽지한담산책로,,해안도로탐방,33.4478364,126.3065398,2018-08-09,2018-08-09,제주특별자치도 제주시 애월읍 곽지리 2495,y
1085,롯데마트,제주특별자치도 제주시 연북로 1 롯데마트,여기서 음식을 산다,33.4822791,126.4826339,2018-08-11,2018-08-11,제주특별자치도 제주시 노형동 708-3,y
1087,함덕해수욕장,,물놀이,33.5366331,126.6694273,2018-08-12,2018-08-12,제주특별자치도 제주시 도두동 131-2,y
1141,협재 한량,제주특별자치도 제주시 한림읍 한림해안로 289 한림빌라,협재 한량,33.4267522,126.2638131,2018-08-18,2018-08-18,제주특별자치도 제주시 한림읍 수원리 950-5,y
1143,운정이네본점,,ㄷㄷ,33.2634596,126.437676,2018-08-18,2018-08-18,제주특별자치도 서귀포시 중문동 1239-3,y
1145,오아시스펜션,제주특별자치도 서귀포시 예래로68번길 107 중문오아시스펜션,숙소,33.2626853,126.3966768,2018-08-18,2018-08-18,제주특별자치도 서귀포시 예래동 205-1,y
1148,제주국제공항,제주특별자치도 제주시 삼무로 76,도착 13:10,33.4896201,126.4946325,2018-08-20,2018-08-20,제주특별자치도 제주시 연동 292-27,y
1151,공항,제주특별자치도 제주시 공항로 2,출발,33.5068028,126.492803,2018-08-20,2018-08-20,제주특별자치도 제주시 용담2동 2002,y
1156,모립 까페,제주특별자치도 제주시 애월읍 애월로1길 26-7,애월로1길 26-7,33.4629863,126.3097878,2018-08-21,2018-08-21,제주특별자치도 제주시 애월읍 애월리 2537,y
1183,오라동 청보리 메밀꽃밭,제주특별자치도 제주시 공항로 2,ㅁ,33.4230803,126.5052134,2018-08-26,2018-08-26,제주특별자치도 제주시 오라동 산76-2,y
1159,카페 ORDA,제주특별자치도 서귀포시 성산읍 한도로 269-37,제주 서귀포시 성산읍 한도로 269-37,33.4688992,126.9354485,2018-08-21,2018-08-21,제주특별자치도 서귀포시 성산읍 성산리 308,y
1162,브라운스위트,제주특별자치도 서귀포시 성산읍 고성오조로 94 디아일랜드 마리나 호텔,.,33.4520244,126.9145253,2018-08-21,2018-08-21,제주특별자치도 서귀포시 성산읍 고성리 1201,y
1170,성이시돌,제주특별자치도 제주시 한림읍 새미소길 8,ㅇㅇ,33.3471973,126.3229466,2018-08-22,2018-08-22,제주특별자치도 제주시 한림읍 금악리 144,y
1175,제주공항,제주특별자치도 제주시 신대로16길 29,제주공항,33.4867265,126.4935504,2018-08-25,2018-08-25,제주특별자치도 제주시 연동 293-79,y
1181,이호테후 해수욕장,제주특별자치도 제주시 공항로 2,ㅋ,33.4958848,126.4528828,2018-08-26,2018-08-26,제주특별자치도 제주시 이호동 1662,y
1186,카멜리아힐,제주특별자치도 제주시 공항로 2,ㅋ,33.2883143,126.3702294,2018-08-26,2018-08-26,제주특별자치도 서귀포시 안덕면 상창리 275,y
1217,dldldldl,,sadf,33.3623557,126.3814832,2018-08-31,2018-08-31,제주특별자치도 제주시 애월읍 봉성리 산41,y
992,공항,제주특별자치도 제주시 공항로 2,공항,33.5079551,126.4919266,2018-08-05,2018-08-05,제주특별자치도 제주시 용담2동 2002,y
998,바당언덕(숙소) ,제주특별자치도 서귀포시 서리오름로 191-12,제주특별자치도 서귀포시 신효동 1045-4064-733-5009,33.2581267,126.6042712,2018-08-05,2018-08-05,제주특별자치도 서귀포시 효돈동 1045-4,y
1000,제주터서커스,제주특별자치도 서귀포시 효돈로79번길 4,제주특별자치도 제주시 구좌읍 번영로 2172-80,33.4232239,126.7435733,2018-08-05,2018-08-05,제주특별자치도 서귀포시 효돈동 1163,y
1001,산이물식당(고등어조림 회 장어구이 등),제주특별자치도 서귀포시 형제해안로 306,산이물 식당 고등어 장어구이,33.2077903,126.2911826,2018-08-05,2018-08-05,제주특별자치도 서귀포시 대정읍 상모리 130,y
1005,제주공항,제주특별자치도 제주시 공항로 2,집으로 고고,33.5022971,126.4946104,2018-08-06,2018-08-06,제주특별자치도 제주시 용담2동 1923,y
1006,두근두근공항도착,,버스타고 호텔로 이동,33.4949333,126.4948058,2018-08-06,2018-08-06,제주특별자치도 제주시 연동 1934-4,y
1007,호텔 케니스토리,제주특별자치도 서귀포시 중앙로71번길 17 서귀포 가족호텔,호텔,33.2504014,126.559514,2018-08-06,2018-08-06,제주특별자치도 서귀포시 천지동 308-2,y
1028,큰엉 해안,제주특별자치도 서귀포시 태위로 536,17,33.274547,126.7063322,2018-08-08,2018-08-08,제주특별자치도 서귀포시 남원읍 남원리 1409,y
1030,광치기 해변,제주특별자치도 서귀포시 일출로 86,18,33.4501763,126.9212864,2018-08-08,2018-08-08,제주특별자치도 서귀포시 성산읍 고성리 235,y
1065,저녁식사,제주특별자치도 제주시 문교길 27 삼영노블리안아파트,저녁식사,33.4103,126.2628388,2018-08-09,2018-08-09,제주특별자치도 제주시 한림읍 한림리 1535-1,y
1081,소인국테마파크,제주특별자치도 서귀포시 일주동로 4146-20,소인국테마파크 구경,33.2884116,126.3003247,2018-08-10,2018-08-10,제주특별자치도 서귀포시 안덕면 서광리 1879-1,y
1082,정방폭포,제주특별자치도 서귀포시 일주동로 4146-20,정방폭포,33.2442674,126.5726559,2018-08-10,2018-08-10,제주특별자치도 서귀포시 송산동,y
1090,공항,,도착,33.5032857,126.4926697,2018-08-12,2018-08-12,제주특별자치도 제주시 용담2동 1945-23,y
1092,에어비앤비,제주특별자치도 서귀포시 서호호근로 76,에어비앤비,33.2538198,126.5245467,2018-08-12,2018-08-12,제주특별자치도 서귀포시 대륜동 308-2,y
1093,with 친구,,친구,33.2376624,126.559568,2018-08-12,2018-08-12,제주특별자치도 서귀포시 천지동,y
1096,제주공항,제주특별자치도 제주시 다호북길 7,제주공항,33.4979138,126.5065112,2018-08-13,2018-08-13,제주특별자치도 제주시 오라동 2319-18,y
1097,공항,제주특별자치도 제주시 도령로 167,공항,33.4952025,126.4924188,2018-08-13,2018-08-13,제주특별자치도 제주시 용담2동 1819-1,y
1103,제주국제공항,,7시25분~8시35분,33.5037137,126.4885307,2018-08-14,2018-08-14,제주특별자치도 제주시 도두동 405-1,y
1124,영실입구,제주특별자치도 서귀포시 영실로 246 영실매표소,영실,33.3483119,126.4968655,2018-08-17,2018-08-17,제주특별자치도 서귀포시 중문동 산1-1,y
1125,영실입구,제주특별자치도 서귀포시 영실로 246 영실매표소,영실,33.3483119,126.4968655,2018-08-17,2018-08-17,제주특별자치도 서귀포시 중문동 산1-1,y
1126,위세오름,제주특별자치도 제주시 애월읍 1100로 2070-510 윗세오름대피소,윗세오름,33.3615166,126.5181245,2018-08-17,2018-08-17,제주특별자치도 제주시 애월읍 광령리 산183-6,y
1127,어승락,제주특별자치도 제주시 1100로 2070-61 한라산국립공원관리사무소,어승락,33.3914625,126.4944778,2018-08-17,2018-08-17,제주특별자치도 제주시 노형동 산220-13,y
1129,윗세오름,제주특별자치도 제주시 애월읍 1100로 2070-510 윗세오름대피소,윗세오름,33.3616781,126.5180369,2018-08-17,2018-08-17,제주특별자치도 제주시 애월읍 광령리 산183-6,y
1130,영실입구,제주특별자치도 서귀포시 영실로 246 영실매표소,영실,33.3483312,126.4965861,2018-08-17,2018-08-17,제주특별자치도 서귀포시 중문동 산1-1,y
1140,SK렌터카 제주점,제주특별자치도 제주시 일주서로 7582,SK렌터카 제주점,33.4950669,126.4563303,2018-08-18,2018-08-18,제주특별자치도 제주시 이호동 1575,y
1142,중문 스테이,제주특별자치도 서귀포시 태평로442번길 9-7,호텔,33.2457374,126.5684544,2018-08-18,2018-08-18,제주특별자치도 서귀포시 정방동 136,y
1180,공학 도착,제주특별자치도 제주시 공항로 2,ㄴ,33.5071885,126.4934858,2018-08-26,2018-08-26,제주특별자치도 제주시 용담2동 2002,y
1182,제주공항 도착,제주특별자치도 제주시 공항로 2,ㅋ,33.5060363,126.4937576,2018-08-26,2018-08-26,제주특별자치도 제주시 용담2동 1462,y
1184,애월 한담 해안 산책로,제주특별자치도 제주시 공항로 2,ㅋ,33.4595588,126.3111998,2018-08-26,2018-08-26,제주특별자치도 제주시 애월읍 애월리 2628,y
1185,오셜록 티 뮤지엄,제주특별자치도 제주시 공항로 2,ㅋ,33.305147,126.2882085,2018-08-26,2018-08-26,제주특별자치도 서귀포시 안덕면 서광리 산50-13,y
1187,부영호텔 리조트,제주특별자치도 서귀포시 중문관광로 216 제주부영리조트,ㅇ,33.2416133,126.4226727,2018-08-26,2018-08-26,제주특별자치도 서귀포시 중문동 2700-3,y
1014,오설록,제주특별자치도 서귀포시 신화역사로 23,3,33.306045,126.2893817,2018-08-08,2018-08-08,제주특별자치도 서귀포시 안덕면 서광리 1235-1,y
1015,김정희 유배지,제주특별자치도 서귀포시 추사로 44,4,33.2501638,126.2783098,2018-08-08,2018-08-08,제주특별자치도 서귀포시 대정읍 안성리 1661-1,y
1017,방주교회,제주특별자치도 서귀포시 산록남로762번길 113,6,33.3050835,126.3874633,2018-08-08,2018-08-08,제주특별자치도 서귀포시 안덕면 상천리 427,y
1019,서귀포 천문과학관,제주특별자치도 서귀포시 1100로 506,8,33.2888127,126.460389,2018-08-08,2018-08-08,제주특별자치도 서귀포시 중문동 산70,y
1029,서귀포 농업 기술센터,제주특별자치도 서귀포시 태위로 536,17,33.2879847,126.6070903,2018-08-08,2018-08-08,제주특별자치도 서귀포시 남원읍 남원리 1409,y
1032,따라비 오름,제주특별자치도 서귀포시 일출로 86,19,33.3864573,126.7518975,2018-08-08,2018-08-08,제주특별자치도 서귀포시 성산읍 성산리 1,y
1033,메이즈 랜드,제주특별자치도 서귀포시 일출로 86,20,33.4879577,126.8010878,2018-08-08,2018-08-08,제주특별자치도 서귀포시 성산읍 성산리 1,y
1039,제주 민속자연사박물관,제주특별자치도 제주시 삼성로 40,26,33.5064925,126.5303583,2018-08-08,2018-08-08,제주특별자치도 제주시 일도2동 996-1,y
1040,동문재래시장,제주특별자치도 제주시 삼성로 40,27,33.5122205,126.5267189,2018-08-08,2018-08-08,제주특별자치도 제주시 일도1동 1481-8,y
1041,송악산,,6,33.1987641,126.2898268,2018-08-08,2018-08-08,제주특별자치도 서귀포시 대정읍 상모리 산2,y
1054,소풍,제주특별자치도 제주시 다호북길 150,숙소,33.5539931,126.7906307,2018-08-09,2018-08-09,제주특별자치도 제주시 도두동 968-1,y
1059,흙돼지고을,제주특별자치도 서귀포시 성산중앙로37번길 9,흙돼지,33.3249572,126.8437232,2018-08-09,2018-08-09,대한민국,y
1088,제주공항,,공항,33.4995787,126.4982245,2018-08-12,2018-08-12,제주특별자치도 제주시 용담2동 1672-2,y
1079,천지연폭포,제주특별자치도 서귀포시 일주동로 4146-20,폭포구경,33.2399101,126.6098527,2018-08-10,2018-08-10,제주특별자치도 서귀포시 송산동,y
1083,흑돼지쌈밥,제주특별자치도 제주시 고마로 91 인제아파트,ㅇㅇ,33.5062892,126.5414901,2018-08-11,2018-08-11,제주특별자치도 제주시 일도2동 377-9,y
1131,그대와 함께라면 (해물라면),제주특별자치도 서귀포시 성산읍 환해장성로 929,문어라면,33.4340444,126.9157481,2018-08-17,2018-08-17,제주특별자치도 서귀포시 성산읍 고성리 594-2,y
1147,공항,,도착,33.5053001,126.4919574,2018-08-19,2018-08-19,제주특별자치도 제주시 용담2동 833-3,y
1110,켄싱턴리조트 체크아웃,제주특별자치도 서귀포시 이어도로 684 켄싱턴리조트,숙소,33.2326298,126.4893879,2018-08-14,2018-08-14,제주특별자치도 서귀포시 대천동 5647,y
1107,코업시티호텔 성산,제주특별자치도 서귀포시 성산읍 성산등용로 28,코업시티호텔 성산,33.4660712,126.9316362,2018-08-14,2018-08-14,제주특별자치도 서귀포시 성산읍 성산리 250,y
1108,제주공항,,도착,33.5025874,126.4919888,2018-08-14,2018-08-14,제주특별자치도 제주시 도두동 50,y
1119,제주공항,제주특별자치도 제주시 다호길 130,제주도 도착,33.5041514,126.4926597,2018-08-17,2018-08-17,제주특별자치도 제주시 용담2동 1946,y
1135,대명샤인빌리조트,,대명샤인빌리조트,33.3061034,126.7913622,2018-08-17,2018-08-17,대한민국,y
1146,호텔 윈스카이,제주특별자치도 서귀포시 신중남로 17,숙소,33.2532559,126.5084769,2018-08-19,2018-08-19,제주특별자치도 서귀포시 대천동 162-1,y
1154,크랩잭,,애월해안로 765,33.4852695,126.3818848,2018-08-21,2018-08-21,제주특별자치도 제주시 애월읍 구엄리 1291,y
1158,더클리프 까페,제주특별자치도 제주시 애월읍 애월로1길 26-7,중문 더클리프제주 서귀포시 중문관광로 154-17,33.2448295,126.4145003,2018-08-21,2018-08-21,제주특별자치도 서귀포시 예래동 2950-3,y
1163,소금바치순이네,,.,33.5036085,126.9125573,2018-08-21,2018-08-21,제주특별자치도 제주시 구좌읍 종달리 42-4,y
1164,신라호텔,제주특별자치도 서귀포시 중문관광로72번길 75,실내외 수영장/ 호캉스 ,33.246679,126.4083343,2018-08-22,2018-08-22,제주특별자치도 서귀포시 예래동 3039-3,y
1178,제주공항,제주특별자치도 제주시 공항로 2,공항,33.5062924,126.4922387,2018-08-26,2018-08-26,제주특별자치도 제주시 용담2동 2002,y
1188,중문 관광단지,제주특별자치도 서귀포시 중문관광로72번길 35 롯데호텔,ㅇ,33.2477869,126.4106793,2018-08-26,2018-08-26,제주특별자치도 서귀포시 예래동 2812-4,y
1190,용두암,,첫번째,33.5158255,126.5123362,2018-08-27,2018-08-27,제주특별자치도 제주시 용담1동,y
1191,바램목장,제주특별자치도 서귀포시 상예로 530 스카이힐골프장,목장 겸 카페,33.3097719,126.3541349,2018-08-27,2018-08-27,제주특별자치도 서귀포시 안덕면 동광리 178,y
1192,제주김만복 서귀포점,제주특별자치도 서귀포시 상예로 530 스카이힐골프장,제주 김만복통전복김밥,33.2326069,126.5063424,2018-08-27,2018-08-27,제주특별자치도 서귀포시 대천동 701-2,y
1343,섭지코지로,제주특별자치도 서귀포시 섭지코지로 35,한식>회9시30분 라스트오더,33.4380775,126.9214729,2018-09-27,2018-09-27,제주특별자치도 서귀포시 성산읍 고성리 210-2,y
1328,국군복지단 서귀포호텔,제주특별자치도 서귀포시 상예로 319 서귀포호텔,숙소,33.27302,126.3945421,2018-09-22,2018-09-22,제주특별자치도 서귀포시 예래동 161,y
1332,제이 뷰 호텔 (숙소2),제주특별자치도 서귀포시 중산간서로 935,스탠다드 온돌1,33.264735,126.4165531,2018-09-25,2018-09-25,제주특별자치도 서귀포시 예래동 1622-2,y
1337,뜰에,제주특별자치도 제주시 애월로11길 23-1,맛집,33.4663725,126.3202385,2018-09-25,2018-09-25,제주특별자치도 제주시 애월읍 애월리 1819-39,y
1348,서귀포 흑돼지 명가,제주특별자치도 서귀포시 태평로 122 해운대가든,40년 전통의 역사를 자랑하며 대물림식당으로 인정받은 서귀포맛집 [서귀포흑돼지명가]는 범섬 문섬이 한눈에 내려다보이는 바다전망을 감상하며 식사할수있는 유일한 곳이며 서귀포흑돼지맛집 으로도 유명한 서귀포의 명소입니다 ,33.2440785,126.5363442,2018-09-27,2018-09-27,제주특별자치도 서귀포시 대륜동 431-8,y
1344,라이트아트페스타,제주특별자치도 제주시 선교로 115-1 다희연,네이버티켓팅,33.486724,126.7070004,2018-09-27,2018-09-27,제주특별자치도 제주시 조천읍 선흘리 600-6,y
1346,제주 힐링타운 호텔,제주특별자치도 서귀포시 솔오름로105번길 24,숙박,33.2861486,126.5633724,2018-09-27,2018-09-27,제주특별자치도 서귀포시 영천동 산30-13,y
1349,성산일출봉,제주특별자치도 서귀포시 중산간동로 3283-16,일출,33.4589472,126.9394139,2018-09-27,2018-09-27,제주특별자치도 서귀포시 성산읍 성산리 78,y
1351,제주민속오일시장,제주특별자치도 제주시 오일장서길 26,제주민속오일시장,33.4969385,126.4752852,2018-09-27,2018-09-27,제주특별자치도 제주시 도두동 1212,y
1352,티라,,호텔,33.44367,126.9192802,2018-09-27,2018-09-27,제주특별자치도 서귀포시 성산읍 고성리 370-5,y
1359,수줍은언니네,제주특별자치도 서귀포시 안덕면 신화역사로682번길 42,숙소,33.3100952,126.3583993,2018-09-27,2018-09-27,제주특별자치도 서귀포시 안덕면 동광리 5-154,y
1360,교래자연휴양림,제주특별자치도 제주시 남조로 2023 교래자연휴양림,휴양림탐사,33.4384504,126.6615855,2018-09-28,2018-09-28,제주특별자치도 제주시 조천읍 교래리 산119,y
1361,모던 플레이스,제주특별자치도 서귀포시 상예로 262,숙소,33.2678869,126.3947585,2018-09-28,2018-09-28,제주특별자치도 서귀포시 예래동 185-1,y
1364,칠돈가,제주특별자치도 서귀포시 일주서로 873,고기집,33.2579514,126.4174931,2018-09-28,2018-09-28,제주특별자치도 서귀포시 예래동 2353-1,y
1407,ㅎ,제주특별자치도 제주시 용문로 62,ㅎ,33.4901354,126.4471172,2018-10-05,2018-10-05,제주특별자치도 제주시 외도동 898,y
1393,제주또바기,제주특별자치도 제주시 조함해안로 514,보말칼국수 맛집,33.5424626,126.6677072,2018-10-01,2018-10-01,제주특별자치도 제주시 조천읍 함덕리 1004-17,y
1395,개똥이네농장,제주특별자치도 제주시 종인내길 135,감귤체험,33.4947488,126.622742,2018-10-02,2018-10-02,제주특별자치도 제주시 조천읍 와흘리 2160-1,y
1413,물뜰에쉼팡,,ㅅㅅ,33.4379414,126.2978725,2018-10-06,2018-10-06,제주특별자치도 제주시 한림읍 귀덕리 724,y
1414,ㅁㄴㄹ,,ㅁㄴㄹ,33.4579516,126.4119759,2018-10-06,2018-10-06,제주특별자치도 제주시 애월읍 고성리 1267-6,y
1422,공항,제주특별자치도 제주시 남광로 33,도착,33.5020996,126.492339,2018-10-10,2018-10-10,제주특별자치도 제주시 용담2동 1935-7,y
1426,제주원렌트카,제주특별자치도 제주시 용해로 58-7,렌트카,33.5117999,126.5025183,2018-10-13,2018-10-13,제주특별자치도 제주시 용담2동 920-6,y
1427,숙소,제주특별자치도 제주시 옹포2길 36-1,숙소,33.3978441,126.2501868,2018-10-13,2018-10-13,제주특별자치도 제주시 한림읍 협재리 1354-1,y
